{
  "A81001": {
    "name": "THE DENSHAM SURGERY",
    "lat": 54.561637,
    "lng": -1.318999,
    "postcode": "TS18 1HU",
    "la": "Stockton-on-Tees",
    "prescriptions": 1277,
    "cost": 1094.52
  },
  "A81002": {
    "name": "QUEENS PARK MEDICAL CENTRE",
    "lat": 54.569175,
    "lng": -1.313893,
    "postcode": "TS18 2AW",
    "la": "Stockton-on-Tees",
    "prescriptions": 5543,
    "cost": 5003.0199999999995
  },
  "A81004": {
    "name": "ACKLAM MEDICAL CENTRE",
    "lat": 54.538198,
    "lng": -1.262142,
    "postcode": "TS5 8SB",
    "la": "Middlesbrough",
    "prescriptions": 2763,
    "cost": 2475.5600000000004
  },
  "A81005": {
    "name": "SPRINGWOOD SURGERY",
    "lat": 54.53261,
    "lng": -1.055459,
    "postcode": "TS14 7DJ",
    "la": "Redcar and Cleveland",
    "prescriptions": 2903,
    "cost": 2360.81
  },
  "A81006": {
    "name": "TENNANT STREET MEDICAL PRACTICE",
    "lat": 54.568616,
    "lng": -1.313593,
    "postcode": "TS18 2AT",
    "la": "Stockton-on-Tees",
    "prescriptions": 4425,
    "cost": 3386.3999999999996
  },
  "A81007": {
    "name": "BANKHOUSE SURGERY",
    "lat": 54.682342,
    "lng": -1.214164,
    "postcode": "TS24 7PW",
    "la": "Hartlepool",
    "prescriptions": 2399,
    "cost": 2313.7799999999997
  },
  "A81009": {
    "name": "VILLAGE MEDICAL CENTRE",
    "lat": 54.562285,
    "lng": -1.241897,
    "postcode": "TS5 6HF",
    "la": "Middlesbrough",
    "prescriptions": 2140,
    "cost": 1555.21
  },
  "A81011": {
    "name": "CHADWICK PRACTICE",
    "lat": 54.682342,
    "lng": -1.214164,
    "postcode": "TS24 7PW",
    "la": "Hartlepool",
    "prescriptions": 3907,
    "cost": 3157.51
  },
  "A81012": {
    "name": "WESTBOURNE MEDICAL CENTRE",
    "lat": 54.571738,
    "lng": -1.216246,
    "postcode": "TS3 6AL",
    "la": "Middlesbrough",
    "prescriptions": 1736,
    "cost": 1188.44
  },
  "A81013": {
    "name": "BROTTON SURGERY",
    "lat": 54.565279,
    "lng": -0.936373,
    "postcode": "TS12 2FF",
    "la": "Redcar and Cleveland",
    "prescriptions": 2584,
    "cost": 2048.08
  },
  "A81014": {
    "name": "QUEENSTREE PRACTICE",
    "lat": 54.608303,
    "lng": -1.294813,
    "postcode": "TS23 2LA",
    "la": "Stockton-on-Tees",
    "prescriptions": 1533,
    "cost": 1105.62
  },
  "A81016": {
    "name": "PARK SURGERY",
    "lat": 54.566667,
    "lng": -1.240007,
    "postcode": "TS1 3QY",
    "la": "Middlesbrough",
    "prescriptions": 3017,
    "cost": 2183.99
  },
  "A81017": {
    "name": "WOODBRIDGE PRACTICE",
    "lat": 54.538161,
    "lng": -1.292142,
    "postcode": "TS17 0EE",
    "la": "Stockton-on-Tees",
    "prescriptions": 4776,
    "cost": 3636.4599999999996
  },
  "A81018": {
    "name": "BENTLEY MEDICAL PRACTICE",
    "lat": 54.599299,
    "lng": -1.068807,
    "postcode": "TS10 4NW",
    "la": "Redcar and Cleveland",
    "prescriptions": 4025,
    "cost": 2813.8599999999997
  },
  "A81019": {
    "name": "CROSSFELL HEALTH CENTRE",
    "lat": 54.560846,
    "lng": -1.203898,
    "postcode": "TS3 7RL",
    "la": "Middlesbrough",
    "prescriptions": 2729,
    "cost": 2017.23
  },
  "A81020": {
    "name": "MARTONSIDE MEDICAL CENTRE",
    "lat": 54.553188,
    "lng": -1.220343,
    "postcode": "TS4 3BU",
    "la": "Middlesbrough",
    "prescriptions": 2379,
    "cost": 2158.35
  },
  "A81021": {
    "name": "NORMANBY MEDICAL CENTRE",
    "lat": 54.571137,
    "lng": -1.168043,
    "postcode": "TS6 6TD",
    "la": "Redcar and Cleveland",
    "prescriptions": 7777,
    "cost": 6133.9400000000005
  },
  "A81022": {
    "name": "HILLSIDE PRACTICE",
    "lat": 54.563154,
    "lng": -0.980814,
    "postcode": "TS12 2TG",
    "la": "Redcar and Cleveland",
    "prescriptions": 3764,
    "cost": 2819.77
  },
  "A81023": {
    "name": "THE ENDEAVOUR PRACTICE",
    "lat": 54.575059,
    "lng": -1.235411,
    "postcode": "TS1 2NX",
    "la": "Middlesbrough",
    "prescriptions": 1735,
    "cost": 1455.52
  },
  "A81025": {
    "name": "THE DOVECOT SURGERY",
    "lat": 54.561637,
    "lng": -1.318999,
    "postcode": "TS18 1HU",
    "la": "Stockton-on-Tees",
    "prescriptions": 1303,
    "cost": 1166.3899999999999
  },
  "A81026": {
    "name": "LINTHORPE SURGERY",
    "lat": 54.563343,
    "lng": -1.241615,
    "postcode": "TS5 6HA",
    "la": "Middlesbrough",
    "prescriptions": 5046,
    "cost": 3847.92
  },
  "A81027": {
    "name": "YARM MEDICAL PRACTICE",
    "lat": 54.505085,
    "lng": -1.355828,
    "postcode": "TS15 9DD",
    "la": "Stockton-on-Tees",
    "prescriptions": 3114,
    "cost": 2599.3
  },
  "A81029": {
    "name": "PROSPECT SURGERY",
    "lat": 54.575059,
    "lng": -1.235411,
    "postcode": "TS1 2NX",
    "la": "Middlesbrough",
    "prescriptions": 1808,
    "cost": 1395.59
  },
  "A81030": {
    "name": "BOROUGH ROAD & NUNTHORPE MEDICAL GROUP",
    "lat": 54.571979,
    "lng": -1.227224,
    "postcode": "TS1 3RY",
    "la": "Middlesbrough",
    "prescriptions": 4203,
    "cost": 4029.3199999999997
  },
  "A81031": {
    "name": "HAVELOCK GRANGE PRACTICE",
    "lat": 54.682342,
    "lng": -1.214164,
    "postcode": "TS24 7PW",
    "la": "Hartlepool",
    "prescriptions": 3614,
    "cost": 4668.45
  },
  "A81032": {
    "name": "THE GARTH",
    "lat": 54.53261,
    "lng": -1.055459,
    "postcode": "TS14 7DJ",
    "la": "Redcar and Cleveland",
    "prescriptions": 3455,
    "cost": 2463.0099999999998
  },
  "A81034": {
    "name": "THORNABY & BARWICK MEDICAL GROUP",
    "lat": 54.538161,
    "lng": -1.292142,
    "postcode": "TS17 0EE",
    "la": "Stockton-on-Tees",
    "prescriptions": 5192,
    "cost": 4632.09
  },
  "A81035": {
    "name": "NEWLANDS MEDICAL CENTRE",
    "lat": 54.571944,
    "lng": -1.226049,
    "postcode": "TS1 3RX",
    "la": "Middlesbrough",
    "prescriptions": 2158,
    "cost": 2179.14
  },
  "A81036": {
    "name": "NORTON MEDICAL CENTRE",
    "lat": 54.588708,
    "lng": -1.308335,
    "postcode": "TS20 2UZ",
    "la": "Stockton-on-Tees",
    "prescriptions": 5322,
    "cost": 4334.55
  },
  "A81037": {
    "name": "THE ERIMUS PRACTICE",
    "lat": 54.575059,
    "lng": -1.235411,
    "postcode": "TS1 2NX",
    "la": "Middlesbrough",
    "prescriptions": 1769,
    "cost": 1660.44
  },
  "A81038": {
    "name": "HIRSEL MEDICAL CENTRE",
    "lat": 54.571738,
    "lng": -1.216246,
    "postcode": "TS3 6AL",
    "la": "Middlesbrough",
    "prescriptions": 1009,
    "cost": 864.99
  },
  "A81039": {
    "name": "EAGLESCLIFFE MEDICAL PRACTICE",
    "lat": 54.520025,
    "lng": -1.348131,
    "postcode": "TS16 9EA",
    "la": "Stockton-on-Tees",
    "prescriptions": 3186,
    "cost": 2272.05
  },
  "A81040": {
    "name": "MARSH HOUSE MEDICAL PRACTICE",
    "lat": 54.611738,
    "lng": -1.29223,
    "postcode": "TS23 2DG",
    "la": "Stockton-on-Tees",
    "prescriptions": 2036,
    "cost": 2022.4700000000003
  },
  "A81041": {
    "name": "HART MEDICAL PRACTICE",
    "lat": 54.704169,
    "lng": -1.223519,
    "postcode": "TS24 9DN",
    "la": "Hartlepool",
    "prescriptions": 2460,
    "cost": 6393.26
  },
  "A81042": {
    "name": "SOUTH GRANGE MEDICAL GROUP PRACTICE",
    "lat": 54.569967,
    "lng": -1.16652,
    "postcode": "TS6 9QG",
    "la": "Redcar and Cleveland",
    "prescriptions": 5602,
    "cost": 5156.009999999999
  },
  "A81044": {
    "name": "MCKENZIE HOUSE SURGERY",
    "lat": 54.672432,
    "lng": -1.210401,
    "postcode": "TS25 1QU",
    "la": "Hartlepool",
    "prescriptions": 6558,
    "cost": 5650.4
  },
  "A81045": {
    "name": "THE COATHAM ROAD SURGERY",
    "lat": 54.617378,
    "lng": -1.071941,
    "postcode": "TS10 1SR",
    "la": "Redcar and Cleveland",
    "prescriptions": 2072,
    "cost": 1450.41
  },
  "A81046": {
    "name": "WOODLANDS FAMILY MEDICAL CENTRE",
    "lat": 54.561227,
    "lng": -1.321217,
    "postcode": "TS18 1YE",
    "la": "Stockton-on-Tees",
    "prescriptions": 2837,
    "cost": 2429.52
  },
  "A81048": {
    "name": "ZETLAND MEDICAL PRACTICE",
    "lat": 54.591713,
    "lng": -1.016408,
    "postcode": "TS11 7BL",
    "la": "Redcar and Cleveland",
    "prescriptions": 3077,
    "cost": 2125.78
  },
  "A81049": {
    "name": "KINGS MEDICAL CENTRE",
    "lat": 54.571738,
    "lng": -1.216246,
    "postcode": "TS3 6AL",
    "la": "Middlesbrough",
    "prescriptions": 1870,
    "cost": 1365.92
  },
  "A81051": {
    "name": "CAMBRIDGE MEDICAL GROUP",
    "lat": 54.554162,
    "lng": -1.252314,
    "postcode": "TS5 5NN",
    "la": "Middlesbrough",
    "prescriptions": 1880,
    "cost": 1620.41
  },
  "A81052": {
    "name": "THE GREEN HOUSE SURGERY",
    "lat": 54.599299,
    "lng": -1.068807,
    "postcode": "TS10 4NW",
    "la": "Redcar and Cleveland",
    "prescriptions": 3322,
    "cost": 3490.6099999999997
  },
  "A81053": {
    "name": "WOODSIDE SURGERY",
    "lat": 54.553923,
    "lng": -0.886804,
    "postcode": "TS13 4HW",
    "la": "Redcar and Cleveland",
    "prescriptions": 2247,
    "cost": 1839.88
  },
  "A81054": {
    "name": "THE SALTSCAR SURGERY",
    "lat": 54.616294,
    "lng": -1.073653,
    "postcode": "TS10 1UA",
    "la": "Redcar and Cleveland",
    "prescriptions": 2830,
    "cost": 2121.51
  },
  "A81056": {
    "name": "MELROSE SURGERY",
    "lat": 54.609409,
    "lng": -1.287316,
    "postcode": "TS23 2JW",
    "la": "Stockton-on-Tees",
    "prescriptions": 918,
    "cost": 597.01
  },
  "A81057": {
    "name": "KINGSWAY MEDICAL CENTRE",
    "lat": 54.606471,
    "lng": -1.289024,
    "postcode": "TS23 2LS",
    "la": "Stockton-on-Tees",
    "prescriptions": 2654,
    "cost": 2508.87
  },
  "A81058": {
    "name": "COULBY MEDICAL PRACTICE",
    "lat": 54.524817,
    "lng": -1.213775,
    "postcode": "TS8 0TL",
    "la": "Middlesbrough",
    "prescriptions": 1983,
    "cost": 1769.34
  },
  "A81060": {
    "name": "WEST QUAY MEDICAL PRACTICE",
    "lat": 54.68525,
    "lng": -1.217613,
    "postcode": "TS26 8DB",
    "la": "Hartlepool",
    "prescriptions": 1525,
    "cost": 1448.2800000000002
  },
  "A81063": {
    "name": "THE HEADLAND MEDICAL CENTRE",
    "lat": 54.696651,
    "lng": -1.18312,
    "postcode": "TS24 0NZ",
    "la": "Hartlepool",
    "prescriptions": 2353,
    "cost": 1676.0100000000002
  },
  "A81064": {
    "name": "THE DISCOVERY PRACTICE",
    "lat": 54.575059,
    "lng": -1.235411,
    "postcode": "TS1 2NX",
    "la": "Middlesbrough",
    "prescriptions": 1288,
    "cost": 1645.94
  },
  "A81065": {
    "name": "THE ESTON SURGERY",
    "lat": 54.571137,
    "lng": -1.168043,
    "postcode": "TS6 6TD",
    "la": "Redcar and Cleveland",
    "prescriptions": 1170,
    "cost": 934.5799999999999
  },
  "A81066": {
    "name": "PARK LANE SURGERY",
    "lat": 54.60465,
    "lng": -1.425143,
    "postcode": "TS21 1JS",
    "la": "Stockton-on-Tees",
    "prescriptions": 1737,
    "cost": 1248.3400000000001
  },
  "A81067": {
    "name": "ALMA MEDICAL CENTRE",
    "lat": 54.569502,
    "lng": -1.317661,
    "postcode": "TS18 2BP",
    "la": "Stockton-on-Tees",
    "prescriptions": 2924,
    "cost": 2775.9500000000003
  },
  "A81070": {
    "name": "MCKENZIE GROUP PRACTICE",
    "lat": 54.660476,
    "lng": -1.239281,
    "postcode": "TS25 3DQ",
    "la": "Hartlepool",
    "prescriptions": 1113,
    "cost": 787.76
  },
  "A81602": {
    "name": "DR RASOOL",
    "lat": 54.611738,
    "lng": -1.29223,
    "postcode": "TS23 2DG",
    "la": "Stockton-on-Tees",
    "prescriptions": 766,
    "cost": 539.52
  },
  "A81608": {
    "name": "ELM TREE SURGERY",
    "lat": 54.554886,
    "lng": -1.29966,
    "postcode": "TS17 6PG",
    "la": "Stockton-on-Tees",
    "prescriptions": 3721,
    "cost": 3128.5099999999998
  },
  "A81610": {
    "name": "THE ROSEBERRY PRACTICE",
    "lat": 54.611738,
    "lng": -1.29223,
    "postcode": "TS23 2DG",
    "la": "Stockton-on-Tees",
    "prescriptions": 2486,
    "cost": 1681.69
  },
  "A81611": {
    "name": "PARKWAY MEDICAL CENTRE",
    "lat": 54.524817,
    "lng": -1.213775,
    "postcode": "TS8 0TL",
    "la": "Middlesbrough",
    "prescriptions": 2013,
    "cost": 1893.0
  },
  "A81612": {
    "name": "THE PATEL PRACTICE",
    "lat": 54.661414,
    "lng": -1.188586,
    "postcode": "TS25 1AX",
    "la": "Hartlepool",
    "prescriptions": 1052,
    "cost": 1121.67
  },
  "A81618": {
    "name": "HUNTCLIFF SURGERY",
    "lat": 54.582776,
    "lng": -0.974707,
    "postcode": "TS12 1BJ",
    "la": "Redcar and Cleveland",
    "prescriptions": 2750,
    "cost": 2303.03
  },
  "A81621": {
    "name": "THORNTREE SURGERY",
    "lat": 54.565221,
    "lng": -1.183474,
    "postcode": "TS3 9NB",
    "la": "Middlesbrough",
    "prescriptions": 778,
    "cost": 590.53
  },
  "A81622": {
    "name": "GLADSTONE HOUSE SURGERY",
    "lat": 54.685211,
    "lng": -1.218591,
    "postcode": "TS26 8DF",
    "la": "Hartlepool",
    "prescriptions": 1436,
    "cost": 1504.8400000000001
  },
  "A81629": {
    "name": "RIVERSIDE MEDICAL PRACTICE",
    "lat": 54.56887,
    "lng": -1.315584,
    "postcode": "TS18 2AP",
    "la": "Stockton-on-Tees",
    "prescriptions": 2183,
    "cost": 1619.3500000000001
  },
  "A81631": {
    "name": "WEST VIEW MILLENIUM SURGERY A",
    "lat": 54.709889,
    "lng": -1.22282,
    "postcode": "TS24 9LJ",
    "la": "Hartlepool",
    "prescriptions": 1644,
    "cost": 1713.58
  },
  "A81634": {
    "name": "THE ARRIVAL PRACTICE",
    "lat": 54.572139,
    "lng": -1.311956,
    "postcode": "TS18 2EP",
    "la": "Stockton-on-Tees",
    "prescriptions": 2,
    "cost": 1.75
  },
  "A82003": {
    "name": "ULVERSTON MEDICAL PRACTICE",
    "lat": 54.198891,
    "lng": -3.097833,
    "postcode": "LA12 7BT",
    "la": "Westmorland and Furness",
    "prescriptions": 1847,
    "cost": 2153.43
  },
  "A82004": {
    "name": "ALSTON MEDICAL PRACTICE",
    "lat": 54.810742,
    "lng": -2.440174,
    "postcode": "CA9 3QU",
    "la": "Westmorland and Furness",
    "prescriptions": 692,
    "cost": 675.1700000000001
  },
  "A82005": {
    "name": "AMBLESIDE HEALTH CENTRE",
    "lat": 54.435059,
    "lng": -2.96636,
    "postcode": "LA22 9BP",
    "la": "Westmorland and Furness",
    "prescriptions": 1610,
    "cost": 1204.0700000000002
  },
  "A82006": {
    "name": "APPLEBY MEDICAL PRACTICE",
    "lat": 54.57809,
    "lng": -2.492998,
    "postcode": "CA16 6QR",
    "la": "Westmorland and Furness",
    "prescriptions": 1480,
    "cost": 1163.9
  },
  "A82007": {
    "name": "DUKE STREET SURGERY",
    "lat": 54.110679,
    "lng": -3.225657,
    "postcode": "LA14 1LF",
    "la": "Westmorland and Furness",
    "prescriptions": 2248,
    "cost": 2369.7300000000005
  },
  "A82008": {
    "name": "NORWOOD MEDICAL CENTRE",
    "lat": 54.119209,
    "lng": -3.222971,
    "postcode": "LA14 5ES",
    "la": "Westmorland and Furness",
    "prescriptions": 2962,
    "cost": 3047.08
  },
  "A82009": {
    "name": "BRIDGEGATE MEDICAL CENTRE",
    "lat": 54.11433,
    "lng": -3.208692,
    "postcode": "LA13 9SH",
    "la": "Westmorland and Furness",
    "prescriptions": 2956,
    "cost": 2261.5
  },
  "A82010": {
    "name": "ABBEY ROAD SURGERY",
    "lat": 54.109942,
    "lng": -3.224779,
    "postcode": "LA14 2LB",
    "la": "Westmorland and Furness",
    "prescriptions": 1684,
    "cost": 3081.46
  },
  "A82012": {
    "name": "BRAMPTON MEDICAL PRACTICE",
    "lat": 54.94237,
    "lng": -2.734846,
    "postcode": "CA8 1NL",
    "la": "Cumberland",
    "prescriptions": 5404,
    "cost": 4065.3100000000004
  },
  "A82013": {
    "name": "UPPER EDEN MEDICAL PRACTICE",
    "lat": 54.474727,
    "lng": -2.350139,
    "postcode": "CA17 4RB",
    "la": "Westmorland and Furness",
    "prescriptions": 2339,
    "cost": 1588.9499999999998
  },
  "A82014": {
    "name": "CALDBECK SURGERY",
    "lat": 54.749871,
    "lng": -3.050627,
    "postcode": "CA7 8DS",
    "la": "Cumberland",
    "prescriptions": 1295,
    "cost": 919.89
  },
  "A82015": {
    "name": "CARLISLE CENTRAL PRACTICE",
    "lat": 54.893802,
    "lng": -2.928497,
    "postcode": "CA1 1EB",
    "la": "Cumberland",
    "prescriptions": 2118,
    "cost": 2534.62
  },
  "A82016": {
    "name": "CARLISLE HEALTHCARE",
    "lat": 54.885364,
    "lng": -2.903502,
    "postcode": "CA1 3UB",
    "la": "Cumberland",
    "prescriptions": 7811,
    "cost": 8319.92
  },
  "A82018": {
    "name": "SPENCER ST SURGERY",
    "lat": 54.894887,
    "lng": -2.931157,
    "postcode": "CA1 1BP",
    "la": "Cumberland",
    "prescriptions": 1976,
    "cost": 2731.3199999999997
  },
  "A82020": {
    "name": "EDEN MEDICAL GROUP",
    "lat": 54.894174,
    "lng": -2.952455,
    "postcode": "CA2 7AJ",
    "la": "Cumberland",
    "prescriptions": 2421,
    "cost": 2698.75
  },
  "A82021": {
    "name": "CASTLEGATE AND DERWENT SURGERY",
    "lat": 54.667192,
    "lng": -3.358501,
    "postcode": "CA13 9HT",
    "la": "Cumberland",
    "prescriptions": 5641,
    "cost": 4288.75
  },
  "A82022": {
    "name": "DALSTON MEDICAL GROUP",
    "lat": 54.841382,
    "lng": -2.985547,
    "postcode": "CA5 7PZ",
    "la": "Cumberland",
    "prescriptions": 1694,
    "cost": 1259.36
  },
  "A82023": {
    "name": "DISTINGTON SURGERY",
    "lat": 54.595313,
    "lng": -3.541352,
    "postcode": "CA14 5UR",
    "la": "Cumberland",
    "prescriptions": 2196,
    "cost": 1627.85
  },
  "A82024": {
    "name": "SEASCALE HEALTH CENTRE",
    "lat": 54.396756,
    "lng": -3.479998,
    "postcode": "CA20 1PN",
    "la": "Cumberland",
    "prescriptions": 1519,
    "cost": 1297.27
  },
  "A82025": {
    "name": "CAPTAIN FRENCH SURGERY",
    "lat": 54.323439,
    "lng": -2.748564,
    "postcode": "LA9 4JE",
    "la": "Westmorland and Furness",
    "prescriptions": 2293,
    "cost": 2024.89
  },
  "A82026": {
    "name": "THE JAMES COCHRANE PRACT.",
    "lat": 54.312706,
    "lng": -2.737133,
    "postcode": "LA9 7HR",
    "la": "Westmorland and Furness",
    "prescriptions": 4590,
    "cost": 3213.81
  },
  "A82027": {
    "name": "STATION HOUSE SURGERY",
    "lat": 54.331889,
    "lng": -2.739537,
    "postcode": "LA9 6SA",
    "la": "Westmorland and Furness",
    "prescriptions": 3080,
    "cost": 2270.33
  },
  "A82028": {
    "name": "CASTLEHEAD MEDICAL CENTRE",
    "lat": 54.597698,
    "lng": -3.134576,
    "postcode": "CA12 4DB",
    "la": "Cumberland",
    "prescriptions": 2178,
    "cost": 1565.94
  },
  "A82029": {
    "name": "THE CROFT SURGERY",
    "lat": 54.896921,
    "lng": -3.202915,
    "postcode": "CA7 5JH",
    "la": "Cumberland",
    "prescriptions": 1441,
    "cost": 937.47
  },
  "A82030": {
    "name": "LUNESDALE SURGERY",
    "lat": 54.200584,
    "lng": -2.602214,
    "postcode": "LA6 2HQ",
    "la": "Westmorland and Furness",
    "prescriptions": 1686,
    "cost": 1135.6000000000001
  },
  "A82031": {
    "name": "SHAP MEDICAL PRACTICE",
    "lat": 54.528899,
    "lng": -2.677936,
    "postcode": "CA10 3LW",
    "la": "Westmorland and Furness",
    "prescriptions": 1053,
    "cost": 829.68
  },
  "A82032": {
    "name": "MARYPORT HEALTH SERVICES",
    "lat": 54.706439,
    "lng": -3.494532,
    "postcode": "CA15 8EL",
    "la": "Cumberland",
    "prescriptions": 4605,
    "cost": 3333.87
  },
  "A82033": {
    "name": "WATERLOO HOUSE SURGERY",
    "lat": 54.208948,
    "lng": -3.268021,
    "postcode": "LA18 4BY",
    "la": "Cumberland",
    "prescriptions": 1590,
    "cost": 1640.21
  },
  "A82035": {
    "name": "BIRBECK MEDICAL GROUP",
    "lat": 54.656225,
    "lng": -2.743839,
    "postcode": "CA11 8HW",
    "la": "Westmorland and Furness",
    "prescriptions": 2408,
    "cost": 2902.95
  },
  "A82036": {
    "name": "THE LAKES MEDICAL PRACTICE",
    "lat": 54.656225,
    "lng": -2.743839,
    "postcode": "CA11 8HW",
    "la": "Westmorland and Furness",
    "prescriptions": 1950,
    "cost": 2072.3599999999997
  },
  "A82037": {
    "name": "SILLOTH GROUP MEDICAL PRACTICE",
    "lat": 54.86971,
    "lng": -3.393572,
    "postcode": "CA7 4AH",
    "la": "Cumberland",
    "prescriptions": 1427,
    "cost": 1133.68
  },
  "A82038": {
    "name": "TEMPLE SOWERBY MEDICAL PRACTICE",
    "lat": 54.636786,
    "lng": -2.605304,
    "postcode": "CA10 1RW",
    "la": "Westmorland and Furness",
    "prescriptions": 945,
    "cost": 1223.02
  },
  "A82039": {
    "name": "DALTON SURGERY",
    "lat": 54.155925,
    "lng": -3.179815,
    "postcode": "LA15 8AB",
    "la": "Westmorland and Furness",
    "prescriptions": 1398,
    "cost": 1758.6699999999998
  },
  "A82041": {
    "name": "LOWTHER MEDICAL CENTRE",
    "lat": 54.545063,
    "lng": -3.586393,
    "postcode": "CA28 7RG",
    "la": "Cumberland",
    "prescriptions": 4359,
    "cost": 3303.76
  },
  "A82044": {
    "name": "FELLVIEW HEALTHCARE",
    "lat": 54.482542,
    "lng": -3.532986,
    "postcode": "CA22 2BD",
    "la": "Cumberland",
    "prescriptions": 6872,
    "cost": 5467.89
  },
  "A82045": {
    "name": "WIGTON GROUP MEDICAL PRACTICE",
    "lat": 54.82033,
    "lng": -3.159035,
    "postcode": "CA7 9QD",
    "la": "Cumberland",
    "prescriptions": 2759,
    "cost": 2113.14
  },
  "A82046": {
    "name": "WINDERMERE HEALTH CENTRE",
    "lat": 54.370879,
    "lng": -2.913424,
    "postcode": "LA23 2EG",
    "la": "Westmorland and Furness",
    "prescriptions": 1030,
    "cost": 1019.28
  },
  "A82047": {
    "name": "JAMES STREET GROUP PRACT",
    "lat": 54.644838,
    "lng": -3.550292,
    "postcode": "CA14 2DL",
    "la": "Cumberland",
    "prescriptions": 9626,
    "cost": 7475.66
  },
  "A82053": {
    "name": "NUTWOOD MEDICAL PRACTICE",
    "lat": 54.187966,
    "lng": -2.915665,
    "postcode": "LA11 7DJ",
    "la": "Westmorland and Furness",
    "prescriptions": 1823,
    "cost": 1466.66
  },
  "A82055": {
    "name": "ASPATRIA MEDICAL GROUP",
    "lat": 54.762157,
    "lng": -3.337948,
    "postcode": "CA7 3HH",
    "la": "Cumberland",
    "prescriptions": 2610,
    "cost": 2044.74
  },
  "A82062": {
    "name": "ATKINSON HEALTH CENTRE",
    "lat": 54.109942,
    "lng": -3.224779,
    "postcode": "LA14 2LB",
    "la": "Westmorland and Furness",
    "prescriptions": 1526,
    "cost": 1543.45
  },
  "A82064": {
    "name": "WESTCROFT HOUSE SURGERY",
    "lat": 54.483155,
    "lng": -3.528594,
    "postcode": "CA22 2DB",
    "la": "Cumberland",
    "prescriptions": 2173,
    "cost": 1549.1000000000001
  },
  "A82068": {
    "name": "ULVERSTON COMMUNITY HEALTH CENTRE",
    "lat": 54.198891,
    "lng": -3.097833,
    "postcode": "LA12 7BT",
    "la": "Westmorland and Furness",
    "prescriptions": 692,
    "cost": 767.12
  },
  "A82070": {
    "name": "ST. MARY'S SURGERY",
    "lat": 54.380773,
    "lng": -2.90884,
    "postcode": "LA23 1BA",
    "la": "Westmorland and Furness",
    "prescriptions": 1779,
    "cost": 1533.8200000000002
  },
  "A82071": {
    "name": "BURNETT EDGAR MEDICAL CTR",
    "lat": 54.107131,
    "lng": -3.255073,
    "postcode": "LA14 3HY",
    "la": "Westmorland and Furness",
    "prescriptions": 954,
    "cost": 855.3199999999999
  },
  "A82072": {
    "name": "RISEDALE SURGERY",
    "lat": 54.109942,
    "lng": -3.224779,
    "postcode": "LA14 2LB",
    "la": "Westmorland and Furness",
    "prescriptions": 2413,
    "cost": 1744.75
  },
  "A82075": {
    "name": "MANSION HOUSE SURGERY",
    "lat": 54.545953,
    "lng": -3.588422,
    "postcode": "CA28 7BU",
    "la": "Cumberland",
    "prescriptions": 2349,
    "cost": 1725.66
  },
  "A82608": {
    "name": "SEDBERGH MEDICAL PRACTICE",
    "lat": 54.322391,
    "lng": -2.535271,
    "postcode": "LA10 5DL",
    "la": "Westmorland and Furness",
    "prescriptions": 984,
    "cost": 681.45
  },
  "A82613": {
    "name": "WRAYSDALE HOUSE SURGERY",
    "lat": 54.367255,
    "lng": -3.07608,
    "postcode": "LA21 8ER",
    "la": "Westmorland and Furness",
    "prescriptions": 205,
    "cost": 172.71
  },
  "A82617": {
    "name": "KIRKOSWALD SURGERY",
    "lat": 54.763777,
    "lng": -2.692582,
    "postcode": "CA10 1DQ",
    "la": "Westmorland and Furness",
    "prescriptions": 815,
    "cost": 549.73
  },
  "A82620": {
    "name": "GLENRIDDING HEALTH CENTRE",
    "lat": 54.544383,
    "lng": -2.951274,
    "postcode": "CA11 0PD",
    "la": "Westmorland and Furness",
    "prescriptions": 311,
    "cost": 195.46999999999997
  },
  "A82629": {
    "name": "THE FAMILY PRACTICE",
    "lat": 54.116763,
    "lng": -3.229279,
    "postcode": "LA14 5SL",
    "la": "Westmorland and Furness",
    "prescriptions": 1096,
    "cost": 776.88
  },
  "A82631": {
    "name": "COURT THORN SURGERY",
    "lat": 54.801834,
    "lng": -2.826253,
    "postcode": "CA4 0HP",
    "la": "Westmorland and Furness",
    "prescriptions": 1207,
    "cost": 865.2900000000001
  },
  "A82646": {
    "name": "LONGTOWN MEDICAL CENTRE",
    "lat": 55.010511,
    "lng": -2.96428,
    "postcode": "CA6 5XA",
    "la": "Cumberland",
    "prescriptions": 1518,
    "cost": 1093.25
  },
  "A82647": {
    "name": "CARTMEL SURGERY",
    "lat": 54.199174,
    "lng": -2.946985,
    "postcode": "LA11 6PH",
    "la": "Westmorland and Furness",
    "prescriptions": 1067,
    "cost": 707.23
  },
  "A82650": {
    "name": "HAVERTHWAITE SURGERY",
    "lat": 54.249762,
    "lng": -2.999729,
    "postcode": "LA12 8AL",
    "la": "Westmorland and Furness",
    "prescriptions": 579,
    "cost": 713.55
  },
  "A82651": {
    "name": "DUDDON VALLEY MEDICAL PRACTICE",
    "lat": 54.232419,
    "lng": -3.184683,
    "postcode": "LA17 7TE",
    "la": "Westmorland and Furness",
    "prescriptions": 1212,
    "cost": 999.5699999999999
  },
  "A82654": {
    "name": "WARWICK SQUARE GROUP PRACTICE",
    "lat": 54.893141,
    "lng": -2.926814,
    "postcode": "CA1 1LB",
    "la": "Cumberland",
    "prescriptions": 1781,
    "cost": 1334.9199999999998
  },
  "A83001": {
    "name": "ST ANDREW'S MEDICAL PRACTICE",
    "lat": 54.699644,
    "lng": -1.598223,
    "postcode": "DL16 6QA",
    "la": "County Durham",
    "prescriptions": 4770,
    "cost": 3718.8
  },
  "A83003": {
    "name": "WILLINGTON MEDICAL GROUP",
    "lat": 54.710285,
    "lng": -1.694347,
    "postcode": "DL15 0EQ",
    "la": "County Durham",
    "prescriptions": 2602,
    "cost": 3167.8
  },
  "A83005": {
    "name": "WHINFIELD MEDICAL PRACTICE",
    "lat": 54.546309,
    "lng": -1.525297,
    "postcode": "DL1 3RT",
    "la": "Darlington",
    "prescriptions": 3501,
    "cost": 2997.75
  },
  "A83006": {
    "name": "ORCHARD COURT SURGERY",
    "lat": 54.532373,
    "lng": -1.566657,
    "postcode": "DL3 6HZ",
    "la": "Darlington",
    "prescriptions": 1764,
    "cost": 1835.22
  },
  "A83007": {
    "name": "BLACKHALL AND PETERLEE PRACTICE",
    "lat": 54.746911,
    "lng": -1.289751,
    "postcode": "TS27 4LQ",
    "la": "County Durham",
    "prescriptions": 3983,
    "cost": 2817.05
  },
  "A83008": {
    "name": "HALLGARTH SURGERY",
    "lat": 54.634893,
    "lng": -1.643649,
    "postcode": "DL4 2HP",
    "la": "County Durham",
    "prescriptions": 2012,
    "cost": 1346.6
  },
  "A83009": {
    "name": "BRIDGE END SURGERY",
    "lat": 54.859312,
    "lng": -1.573492,
    "postcode": "DH3 3SL",
    "la": "County Durham",
    "prescriptions": 2236,
    "cost": 1732.8600000000001
  },
  "A83010": {
    "name": "MOORLANDS SURGERY",
    "lat": 54.534227,
    "lng": -1.577594,
    "postcode": "DL3 9JP",
    "la": "Darlington",
    "prescriptions": 3796,
    "cost": 3995.87
  },
  "A83011": {
    "name": "CLAYPATH & UNIVERSITY MEDICAL GROUP",
    "lat": 54.778709,
    "lng": -1.567171,
    "postcode": "DH1 1QW",
    "la": "County Durham",
    "prescriptions": 2218,
    "cost": 2181.98
  },
  "A83012": {
    "name": "WILLIAM BROWN CENTRE",
    "lat": 54.758004,
    "lng": -1.331435,
    "postcode": "SR8 5TW",
    "la": "County Durham",
    "prescriptions": 6093,
    "cost": 4995.21
  },
  "A83013": {
    "name": "NEASHAM ROAD SURGERY",
    "lat": 54.517268,
    "lng": -1.542657,
    "postcode": "DL1 4YL",
    "la": "Darlington",
    "prescriptions": 3561,
    "cost": 2766.1000000000004
  },
  "A83014": {
    "name": "BELMONT & SHERBURN MEDICAL GROUP",
    "lat": 54.786157,
    "lng": -1.528172,
    "postcode": "DH1 2QW",
    "la": "County Durham",
    "prescriptions": 1897,
    "cost": 1603.46
  },
  "A83015": {
    "name": "STATION VIEW MEDICAL CENTRE",
    "lat": 54.656611,
    "lng": -1.678241,
    "postcode": "DL14 6AB",
    "la": "County Durham",
    "prescriptions": 3855,
    "cost": 3272.21
  },
  "A83016": {
    "name": "TANFIELD VIEW MEDICAL GROUP",
    "lat": 54.869947,
    "lng": -1.701385,
    "postcode": "DH9 8AD",
    "la": "County Durham",
    "prescriptions": 4550,
    "cost": 2899.09
  },
  "A83018": {
    "name": "CONSETT MEDICAL CENTRE",
    "lat": 54.85132,
    "lng": -1.827769,
    "postcode": "DH8 5YA",
    "la": "County Durham",
    "prescriptions": 6647,
    "cost": 4451.21
  },
  "A83020": {
    "name": "NORTH HOUSE SURGERY",
    "lat": 54.717074,
    "lng": -1.747292,
    "postcode": "DL15 9HU",
    "la": "County Durham",
    "prescriptions": 4358,
    "cost": 3957.01
  },
  "A83021": {
    "name": "AUCKLAND MEDICAL GROUP",
    "lat": 54.648094,
    "lng": -1.679006,
    "postcode": "DL14 6RP",
    "la": "County Durham",
    "prescriptions": 6031,
    "cost": 4138.65
  },
  "A83022": {
    "name": "THE MEDICAL GROUP",
    "lat": 54.748305,
    "lng": -1.628922,
    "postcode": "DH7 8NH",
    "la": "County Durham",
    "prescriptions": 8352,
    "cost": 6663.53
  },
  "A83023": {
    "name": "STANLEY MEDICAL GROUP",
    "lat": 54.870038,
    "lng": -1.698065,
    "postcode": "DH9 0AB",
    "la": "County Durham",
    "prescriptions": 4869,
    "cost": 3400.67
  },
  "A83024": {
    "name": "WEST RAINTON SURGERY",
    "lat": 54.81111,
    "lng": -1.504994,
    "postcode": "DH4 6RQ",
    "la": "County Durham",
    "prescriptions": 1864,
    "cost": 1573.69
  },
  "A83025": {
    "name": "BISHOPGATE MEDICAL CENTRE",
    "lat": 54.659113,
    "lng": -1.676237,
    "postcode": "DL14 7EJ",
    "la": "County Durham",
    "prescriptions": 5916,
    "cost": 4206.9800000000005
  },
  "A83026": {
    "name": "SACRISTON MEDICAL CENTRE",
    "lat": 54.81962,
    "lng": -1.628363,
    "postcode": "DH7 6JW",
    "la": "County Durham",
    "prescriptions": 3134,
    "cost": 2325.5499999999997
  },
  "A83027": {
    "name": "COXHOE MEDICAL PRACTICE",
    "lat": 54.714682,
    "lng": -1.504367,
    "postcode": "DH6 4DH",
    "la": "County Durham",
    "prescriptions": 2088,
    "cost": 1605.45
  },
  "A83028": {
    "name": "MIDDLE CHARE MEDICAL GROUP",
    "lat": 54.855645,
    "lng": -1.573126,
    "postcode": "DH3 3QD",
    "la": "County Durham",
    "prescriptions": 3148,
    "cost": 2217.25
  },
  "A83029": {
    "name": "GREAT LUMLEY SURGERY",
    "lat": 54.837257,
    "lng": -1.543131,
    "postcode": "DH3 4LE",
    "la": "County Durham",
    "prescriptions": 1766,
    "cost": 1289.51
  },
  "A83030": {
    "name": "DUNELM MEDICAL PRACTICE",
    "lat": 54.783437,
    "lng": -1.63608,
    "postcode": "DH7 7DG",
    "la": "County Durham",
    "prescriptions": 3968,
    "cost": 2973.2699999999995
  },
  "A83031": {
    "name": "CARMEL MEDICAL PRACTICE",
    "lat": 54.527924,
    "lng": -1.579281,
    "postcode": "DL3 8SQ",
    "la": "Darlington",
    "prescriptions": 2830,
    "cost": 2645.97
  },
  "A83032": {
    "name": "WOODVIEW MEDICAL PRACTICE",
    "lat": 54.612781,
    "lng": -1.80411,
    "postcode": "DL13 5AF",
    "la": "County Durham",
    "prescriptions": 1233,
    "cost": 797.18
  },
  "A83033": {
    "name": "PELTON & FELLROSE MEDICAL GROUP",
    "lat": 54.873325,
    "lng": -1.60356,
    "postcode": "DH2 1HS",
    "la": "County Durham",
    "prescriptions": 3686,
    "cost": 2397.92
  },
  "A83034": {
    "name": "BLACKETTS MEDICAL PRACTICE",
    "lat": 54.527232,
    "lng": -1.559016,
    "postcode": "DL3 7JR",
    "la": "Darlington",
    "prescriptions": 2366,
    "cost": 2279.58
  },
  "A83035": {
    "name": "THE WEARDALE PRACTICE",
    "lat": 54.746013,
    "lng": -2.002665,
    "postcode": "DL13 2XD",
    "la": "County Durham",
    "prescriptions": 2617,
    "cost": 1890.9299999999998
  },
  "A83036": {
    "name": "CHASTLETON MEDICAL GROUP",
    "lat": 54.795763,
    "lng": -1.587147,
    "postcode": "DH1 5BH",
    "la": "County Durham",
    "prescriptions": 2147,
    "cost": 2738.91
  },
  "A83037": {
    "name": "BEWICK CRESCENT SURGERY",
    "lat": 54.617559,
    "lng": -1.57187,
    "postcode": "DL5 5LH",
    "la": "County Durham",
    "prescriptions": 4864,
    "cost": 3242.3300000000004
  },
  "A83038": {
    "name": "CEDARS MEDICAL GROUP",
    "lat": 54.905577,
    "lng": -1.740454,
    "postcode": "NE16 6HU",
    "la": "County Durham",
    "prescriptions": 1384,
    "cost": 1015.9900000000001
  },
  "A83040": {
    "name": "CLIFTON COURT MEDICAL PRACTICE",
    "lat": 54.521149,
    "lng": -1.549565,
    "postcode": "DL1 5JN",
    "la": "Darlington",
    "prescriptions": 2972,
    "cost": 2515.79
  },
  "A83041": {
    "name": "MURTON MEDICAL CENTRE",
    "lat": 54.817006,
    "lng": -1.38334,
    "postcode": "SR7 9AB",
    "la": "County Durham",
    "prescriptions": 3695,
    "cost": 2027.4199999999998
  },
  "A83043": {
    "name": "OLD FORGE SURGERY",
    "lat": 54.62305,
    "lng": -2.079766,
    "postcode": "DL12 0QE",
    "la": "County Durham",
    "prescriptions": 1348,
    "cost": 800.1899999999999
  },
  "A83044": {
    "name": "THE HORDEN GROUP PRACTICE",
    "lat": 54.763742,
    "lng": -1.312924,
    "postcode": "SR8 4LD",
    "la": "County Durham",
    "prescriptions": 2716,
    "cost": 2055.4300000000003
  },
  "A83045": {
    "name": "FERRYHILL AND CHILTON MEDICAL PRACTICE",
    "lat": 54.689848,
    "lng": -1.556839,
    "postcode": "DL17 8JJ",
    "la": "County Durham",
    "prescriptions": 5143,
    "cost": 4102.49
  },
  "A83046": {
    "name": "BARNARD CASTLE SURGERY",
    "lat": 54.545717,
    "lng": -1.916162,
    "postcode": "DL12 8HT",
    "la": "County Durham",
    "prescriptions": 3486,
    "cost": 2622.0200000000004
  },
  "A83047": {
    "name": "DENMARK STREET SURGERY",
    "lat": 54.538836,
    "lng": -1.552261,
    "postcode": "DL3 0PD",
    "la": "Darlington",
    "prescriptions": 4387,
    "cost": 3771.5899999999997
  },
  "A83048": {
    "name": "ROCKLIFFE COURT SURGERY",
    "lat": 54.483455,
    "lng": -1.544084,
    "postcode": "DL2 2DS",
    "la": "Darlington",
    "prescriptions": 2045,
    "cost": 1288.8899999999999
  },
  "A83049": {
    "name": "QUEENS ROAD SURGERY",
    "lat": 54.866986,
    "lng": -1.843798,
    "postcode": "DH8 0BW",
    "la": "County Durham",
    "prescriptions": 4898,
    "cost": 3642.21
  },
  "A83050": {
    "name": "CESTRIA HEALTH CENTRE",
    "lat": 54.85173,
    "lng": -1.597698,
    "postcode": "DH2 3DJ",
    "la": "County Durham",
    "prescriptions": 3509,
    "cost": 3644.08
  },
  "A83051": {
    "name": "MARLBOROUGH SURGERY",
    "lat": 54.835804,
    "lng": -1.33549,
    "postcode": "SR7 7JE",
    "la": "County Durham",
    "prescriptions": 4286,
    "cost": 2999.18
  },
  "A83052": {
    "name": "BISHOPS CLOSE MEDICAL PRACTICE",
    "lat": 54.699827,
    "lng": -1.599152,
    "postcode": "DL16 6ED",
    "la": "County Durham",
    "prescriptions": 3124,
    "cost": 1830.78
  },
  "A83054": {
    "name": "SKERNE MEDICAL GROUP",
    "lat": 54.654043,
    "lng": -1.448812,
    "postcode": "TS21 3BN",
    "la": "County Durham",
    "prescriptions": 5530,
    "cost": 3996.24
  },
  "A83055": {
    "name": "CHEVELEY PARK MEDICAL CTR",
    "lat": 54.785609,
    "lng": -1.52583,
    "postcode": "DH1 2UW",
    "la": "County Durham",
    "prescriptions": 1318,
    "cost": 1075.53
  },
  "A83057": {
    "name": "EAST DURHAM MEDICAL GROUP",
    "lat": 54.725581,
    "lng": -1.378952,
    "postcode": "TS28 5PZ",
    "la": "County Durham",
    "prescriptions": 6933,
    "cost": 5327.9
  },
  "A83060": {
    "name": "PINFOLD MEDICAL PRACTICE",
    "lat": 54.626551,
    "lng": -1.836075,
    "postcode": "DL13 5NX",
    "la": "County Durham",
    "prescriptions": 1063,
    "cost": 848.3399999999999
  },
  "A83061": {
    "name": "GAINFORD SURGERY",
    "lat": 54.546257,
    "lng": -1.731126,
    "postcode": "DL2 3BE",
    "la": "County Durham",
    "prescriptions": 957,
    "cost": 736.01
  },
  "A83066": {
    "name": "JUBILEE MEDICAL GROUP",
    "lat": 54.629666,
    "lng": -1.580232,
    "postcode": "DL5 4SE",
    "la": "County Durham",
    "prescriptions": 3993,
    "cost": 2796.7200000000003
  },
  "A83070": {
    "name": "MIDDLETON AND DINSDALE MEDICAL PRACTICE",
    "lat": 54.514806,
    "lng": -1.447921,
    "postcode": "DL2 1BY",
    "la": "Darlington",
    "prescriptions": 1798,
    "cost": 1320.87
  },
  "A83071": {
    "name": "THE NEW SEAHAM MEDICAL GROUP",
    "lat": 54.834804,
    "lng": -1.365336,
    "postcode": "SR7 8DY",
    "la": "County Durham",
    "prescriptions": 1786,
    "cost": 1268.73
  },
  "A83072": {
    "name": "LANCHESTER MEDICAL CENTRE",
    "lat": 54.819817,
    "lng": -1.738684,
    "postcode": "DH7 0LP",
    "la": "County Durham",
    "prescriptions": 1307,
    "cost": 1155.96
  },
  "A83073": {
    "name": "DRS LAMBERT & NG",
    "lat": 54.857656,
    "lng": -1.737599,
    "postcode": "DH9 7XT",
    "la": "County Durham",
    "prescriptions": 1978,
    "cost": 1329.1100000000001
  },
  "A83074": {
    "name": "PEASE WAY MEDICAL CENTRE",
    "lat": 54.618591,
    "lng": -1.576505,
    "postcode": "DL5 5NH",
    "la": "County Durham",
    "prescriptions": 3425,
    "cost": 2940.99
  },
  "A83075": {
    "name": "BYRON MEDICAL PRACTICE",
    "lat": 54.836856,
    "lng": -1.348925,
    "postcode": "SR7 8LF",
    "la": "County Durham",
    "prescriptions": 4311,
    "cost": 2537.6600000000003
  },
  "A83610": {
    "name": "WINGATE MEDICAL PRACTICE INTRAHEALTH",
    "lat": 54.725581,
    "lng": -1.378952,
    "postcode": "TS28 5PZ",
    "la": "County Durham",
    "prescriptions": 1309,
    "cost": 910.21
  },
  "A83616": {
    "name": "BEVAN MEDICAL GROUP",
    "lat": 54.760846,
    "lng": -1.388109,
    "postcode": "DH6 2LQ",
    "la": "County Durham",
    "prescriptions": 3513,
    "cost": 2393.07
  },
  "A83617": {
    "name": "BROWNEY HOUSE SURGERY",
    "lat": 54.800313,
    "lng": -1.670679,
    "postcode": "DH7 9YT",
    "la": "County Durham",
    "prescriptions": 980,
    "cost": 663.8399999999999
  },
  "A83618": {
    "name": "OAKFIELDS HEALTH GROUP",
    "lat": 54.903631,
    "lng": -1.816537,
    "postcode": "NE17 7SB",
    "la": "County Durham",
    "prescriptions": 3160,
    "cost": 1988.0700000000002
  },
  "A83619": {
    "name": "SOUTHDENE MEDICAL CENTRE",
    "lat": 54.763245,
    "lng": -1.386161,
    "postcode": "DH6 2LT",
    "la": "County Durham",
    "prescriptions": 1349,
    "cost": 892.48
  },
  "A83622": {
    "name": "THE HAVEN SURGERY",
    "lat": 54.825113,
    "lng": -1.712284,
    "postcode": "DH7 0BD",
    "la": "County Durham",
    "prescriptions": 1007,
    "cost": 946.02
  },
  "A83626": {
    "name": "EVENWOOD MEDICAL PRACTICE",
    "lat": 54.620141,
    "lng": -1.758638,
    "postcode": "DL14 9SU",
    "la": "County Durham",
    "prescriptions": 966,
    "cost": 632.56
  },
  "A83627": {
    "name": "SILVERDALE FAMILY PRACTICE",
    "lat": 54.800253,
    "lng": -1.4101,
    "postcode": "DH6 2TH",
    "la": "County Durham",
    "prescriptions": 2067,
    "cost": 1503.27
  },
  "A83634": {
    "name": "WEST CORNFORTH MEDICAL CENTRE",
    "lat": 54.703235,
    "lng": -1.522756,
    "postcode": "DL17 9LH",
    "la": "County Durham",
    "prescriptions": 1254,
    "cost": 817.51
  },
  "A83635": {
    "name": "BOWBURN MEDICAL CENTRE",
    "lat": 54.736269,
    "lng": -1.527275,
    "postcode": "DH6 5AL",
    "la": "County Durham",
    "prescriptions": 1149,
    "cost": 787.1599999999999
  },
  "A83636": {
    "name": "LEADGATE SURGERY",
    "lat": 54.86057,
    "lng": -1.805999,
    "postcode": "DH8 6DP",
    "la": "County Durham",
    "prescriptions": 2616,
    "cost": 1428.77
  },
  "A83637": {
    "name": "VILLAGES MEDICAL GROUP",
    "lat": 54.857871,
    "lng": -1.609802,
    "postcode": "DH2 2NJ",
    "la": "County Durham",
    "prescriptions": 1638,
    "cost": 1089.42
  },
  "A83641": {
    "name": "PARKGATE SURGERY",
    "lat": 54.523284,
    "lng": -1.548615,
    "postcode": "DL1 5LW",
    "la": "Darlington",
    "prescriptions": 1193,
    "cost": 936.38
  },
  "A83644": {
    "name": "ANNFIELD PLAIN SURGERY",
    "lat": 54.856771,
    "lng": -1.735502,
    "postcode": "DH9 7TD",
    "la": "County Durham",
    "prescriptions": 1368,
    "cost": 1128.49
  },
  "A84002": {
    "name": "THE ROTHBURY PRACTICE",
    "lat": 55.306774,
    "lng": -1.913926,
    "postcode": "NE65 7RW",
    "la": "Northumberland",
    "prescriptions": 1204,
    "cost": 1466.5300000000002
  },
  "A84005": {
    "name": "BEDLINGTONSHIRE MED.GROUP",
    "lat": 55.1322,
    "lng": -1.598682,
    "postcode": "NE22 6JX",
    "la": "Northumberland",
    "prescriptions": 4001,
    "cost": 3548.47
  },
  "A84006": {
    "name": "ALNWICK MEDICAL GROUP",
    "lat": 55.410086,
    "lng": -1.696747,
    "postcode": "NE66 2NL",
    "la": "Northumberland",
    "prescriptions": 6858,
    "cost": 4712.629999999999
  },
  "A84007": {
    "name": "PONTELAND MEDICAL GROUP",
    "lat": 55.051757,
    "lng": -1.750046,
    "postcode": "NE20 9SD",
    "la": "Northumberland",
    "prescriptions": 3453,
    "cost": 2739.2999999999997
  },
  "A84008": {
    "name": "BELFORD MEDICAL PRACTICE",
    "lat": 55.595956,
    "lng": -1.826117,
    "postcode": "NE70 7ER",
    "la": "Northumberland",
    "prescriptions": 1508,
    "cost": 1056.78
  },
  "A84009": {
    "name": "RAILWAY MEDICAL GROUP",
    "lat": 55.128819,
    "lng": -1.514248,
    "postcode": "NE24 1HD",
    "la": "Northumberland",
    "prescriptions": 8279,
    "cost": 8160.240000000001
  },
  "A84011": {
    "name": "WHITE MEDICAL GROUP",
    "lat": 55.051757,
    "lng": -1.750046,
    "postcode": "NE20 9SD",
    "la": "Northumberland",
    "prescriptions": 2913,
    "cost": 1934.8200000000002
  },
  "A84013": {
    "name": "THE GABLES MEDICAL GROUP",
    "lat": 55.140816,
    "lng": -1.564444,
    "postcode": "NE22 7DU",
    "la": "Northumberland",
    "prescriptions": 2119,
    "cost": 1613.1599999999999
  },
  "A84014": {
    "name": "MARINE MEDICAL GROUP",
    "lat": 55.127879,
    "lng": -1.51495,
    "postcode": "NE24 1DX",
    "la": "Northumberland",
    "prescriptions": 3542,
    "cost": 3529.4799999999996
  },
  "A84016": {
    "name": "PRUDHOE MEDICAL GROUP",
    "lat": 54.961947,
    "lng": -1.853348,
    "postcode": "NE42 5PW",
    "la": "Northumberland",
    "prescriptions": 1804,
    "cost": 1468.42
  },
  "A84018": {
    "name": "CORBRIDGE HEALTH CENTRE",
    "lat": 54.973869,
    "lng": -2.012711,
    "postcode": "NE45 5LG",
    "la": "Northumberland",
    "prescriptions": 1769,
    "cost": 1192.07
  },
  "A84020": {
    "name": "GUIDEPOST MEDICAL GROUP",
    "lat": 55.157585,
    "lng": -1.604124,
    "postcode": "NE62 5RA",
    "la": "Northumberland",
    "prescriptions": 2574,
    "cost": 2532.9399999999996
  },
  "A84022": {
    "name": "COQUET MEDICAL GROUP",
    "lat": 55.332602,
    "lng": -1.580519,
    "postcode": "NE65 0HD",
    "la": "Northumberland",
    "prescriptions": 3640,
    "cost": 2816.54
  },
  "A84024": {
    "name": "BURN BRAE MEDICAL GROUP",
    "lat": 54.970445,
    "lng": -2.094672,
    "postcode": "NE46 1QJ",
    "la": "Northumberland",
    "prescriptions": 2416,
    "cost": 2138.91
  },
  "A84025": {
    "name": "CRAMLINGTON MEDICAL GROUP",
    "lat": 55.084488,
    "lng": -1.59153,
    "postcode": "NE23 6QN",
    "la": "Northumberland",
    "prescriptions": 2070,
    "cost": 1839.18
  },
  "A84026": {
    "name": "WELL CLOSE MEDICAL GROUP",
    "lat": 55.772455,
    "lng": -2.006137,
    "postcode": "TD15 1LL",
    "la": "Northumberland",
    "prescriptions": 2400,
    "cost": 2159.9
  },
  "A84027": {
    "name": "BELLINGHAM PRACTICE",
    "lat": 55.143844,
    "lng": -2.258007,
    "postcode": "NE48 2HE",
    "la": "Northumberland",
    "prescriptions": 1521,
    "cost": 899.0
  },
  "A84028": {
    "name": "SEATON PARK MEDICAL GROUP",
    "lat": 55.170898,
    "lng": -1.561024,
    "postcode": "NE63 0NG",
    "la": "Northumberland",
    "prescriptions": 6702,
    "cost": 4849.5
  },
  "A84029": {
    "name": "NORTHUMBERLAND HEALTH",
    "lat": 55.240252,
    "lng": -1.620524,
    "postcode": "NE61 5LX",
    "la": "Northumberland",
    "prescriptions": 1893,
    "cost": 1337.23
  },
  "A84030": {
    "name": "VILLAGE MEDICAL GROUP",
    "lat": 55.084733,
    "lng": -1.587095,
    "postcode": "NE23 6US",
    "la": "Northumberland",
    "prescriptions": 2780,
    "cost": 2661.8999999999996
  },
  "A84031": {
    "name": "GREYSTOKE SURGERY",
    "lat": 55.171698,
    "lng": -1.683437,
    "postcode": "NE61 1JX",
    "la": "Northumberland",
    "prescriptions": 2361,
    "cost": 3075.54
  },
  "A84033": {
    "name": "THE SELE MEDICAL PRACTICE",
    "lat": 54.970445,
    "lng": -2.094672,
    "postcode": "NE46 1QJ",
    "la": "Northumberland",
    "prescriptions": 1597,
    "cost": 1268.42
  },
  "A84034": {
    "name": "HALTWHISTLE MEDICAL GROUP",
    "lat": 54.970077,
    "lng": -2.464848,
    "postcode": "NE49 9AP",
    "la": "Northumberland",
    "prescriptions": 1988,
    "cost": 1678.85
  },
  "A84035": {
    "name": "RIVERSDALE SURGERY",
    "lat": 54.961372,
    "lng": -1.84562,
    "postcode": "NE42 5DQ",
    "la": "Northumberland",
    "prescriptions": 1848,
    "cost": 2189.11
  },
  "A84036": {
    "name": "VALENS MEDICAL PARTNERSHIP",
    "lat": 55.169477,
    "lng": -1.689719,
    "postcode": "NE61 1BJ",
    "la": "Northumberland",
    "prescriptions": 16026,
    "cost": 14169.480000000001
  },
  "A84037": {
    "name": "NETHERFIELD HOUSE",
    "lat": 55.063989,
    "lng": -1.547851,
    "postcode": "NE23 7EF",
    "la": "Northumberland",
    "prescriptions": 1758,
    "cost": 1703.3400000000001
  },
  "A84038": {
    "name": "FORUM FAMILY PRACTICE",
    "lat": 55.084488,
    "lng": -1.59153,
    "postcode": "NE23 6QN",
    "la": "Northumberland",
    "prescriptions": 2560,
    "cost": 2135.11
  },
  "A84039": {
    "name": "GAS HOUSE LANE SURGERY",
    "lat": 55.171698,
    "lng": -1.683437,
    "postcode": "NE61 1JX",
    "la": "Northumberland",
    "prescriptions": 2308,
    "cost": 1535.18
  },
  "A84040": {
    "name": "HUMSHAUGH & WARK MED GRP",
    "lat": 55.036042,
    "lng": -2.125352,
    "postcode": "NE46 4BU",
    "la": "Northumberland",
    "prescriptions": 1250,
    "cost": 791.21
  },
  "A84042": {
    "name": "SCOTS GAP MEDICAL GROUP",
    "lat": 55.17275,
    "lng": -1.940573,
    "postcode": "NE61 4EG",
    "la": "Northumberland",
    "prescriptions": 587,
    "cost": 423.9
  },
  "A84044": {
    "name": "UNION BRAE & NORHAM PRAC",
    "lat": 55.766686,
    "lng": -2.011954,
    "postcode": "TD15 2HB",
    "la": "Northumberland",
    "prescriptions": 1857,
    "cost": 1602.8899999999999
  },
  "A84045": {
    "name": "HAYDON BRIDGE & ALLENDALE MEDICAL PRACT",
    "lat": 54.975687,
    "lng": -2.250068,
    "postcode": "NE47 6LA",
    "la": "Northumberland",
    "prescriptions": 1985,
    "cost": 1209.1100000000001
  },
  "A84047": {
    "name": "BRANCH END SURGERY",
    "lat": 54.947139,
    "lng": -1.897801,
    "postcode": "NE43 7LL",
    "la": "Northumberland",
    "prescriptions": 1870,
    "cost": 1156.15
  },
  "A84604": {
    "name": "WOOLER HEALTH",
    "lat": 55.546533,
    "lng": -2.018128,
    "postcode": "NE71 6BL",
    "la": "Northumberland",
    "prescriptions": 1787,
    "cost": 1271.06
  },
  "A84614": {
    "name": "THE ADDERLANE SURGERY",
    "lat": 54.962612,
    "lng": -1.845756,
    "postcode": "NE42 5HR",
    "la": "Northumberland",
    "prescriptions": 575,
    "cost": 613.43
  },
  "A84619": {
    "name": "ELSDON AVENUE SURGERY",
    "lat": 55.070627,
    "lng": -1.5259,
    "postcode": "NE25 0BW",
    "la": "Northumberland",
    "prescriptions": 1375,
    "cost": 999.1399999999999
  },
  "A85001": {
    "name": "FELL TOWER MEDICAL CENTRE",
    "lat": 54.935046,
    "lng": -1.599068,
    "postcode": "NE9 5EY",
    "la": "Gateshead",
    "prescriptions": 1759,
    "cost": 1471.36
  },
  "A85002": {
    "name": "BENSHAM FAMILY PRACTICE",
    "lat": 54.952789,
    "lng": -1.61705,
    "postcode": "NE8 2XB",
    "la": "Gateshead",
    "prescriptions": 1285,
    "cost": 975.8399999999999
  },
  "A85004": {
    "name": "LONGRIGG MEDICAL CENTRE",
    "lat": 54.943764,
    "lng": -1.54589,
    "postcode": "NE10 8PH",
    "la": "Gateshead",
    "prescriptions": 3507,
    "cost": 2685.62
  },
  "A85005": {
    "name": "OXFORD TCE & RAWLING RD MEDICAL GROUP",
    "lat": 54.954309,
    "lng": -1.606293,
    "postcode": "NE8 1RQ",
    "la": "Gateshead",
    "prescriptions": 5311,
    "cost": 4204.4
  },
  "A85006": {
    "name": "GLENPARK & TEAMS MEDICAL SERVICES",
    "lat": 54.952972,
    "lng": -1.639079,
    "postcode": "NE11 9FJ",
    "la": "Gateshead",
    "prescriptions": 5109,
    "cost": 3683.99
  },
  "A85007": {
    "name": "FELL COTTAGE SURGERY",
    "lat": 54.938418,
    "lng": -1.594211,
    "postcode": "NE9 5XY",
    "la": "Gateshead",
    "prescriptions": 1678,
    "cost": 1701.8500000000001
  },
  "A85008": {
    "name": "BIRTLEY MEDICAL GROUP",
    "lat": 54.891889,
    "lng": -1.576453,
    "postcode": "DH3 2QT",
    "la": "Gateshead",
    "prescriptions": 5562,
    "cost": 4141.179999999999
  },
  "A85009": {
    "name": "CROWHALL MEDICAL CENTRE",
    "lat": 54.947997,
    "lng": -1.568137,
    "postcode": "NE10 9QG",
    "la": "Gateshead",
    "prescriptions": 2071,
    "cost": 2037.5900000000001
  },
  "A85010": {
    "name": "CHAINBRIDGE MEDICAL PARTNERSHIP",
    "lat": 54.964222,
    "lng": -1.71273,
    "postcode": "NE21 5AE",
    "la": "Gateshead",
    "prescriptions": 3146,
    "cost": 3148.0
  },
  "A85011": {
    "name": "ST. ALBANS MEDICAL GROUP",
    "lat": 54.947997,
    "lng": -1.568137,
    "postcode": "NE10 9QG",
    "la": "Gateshead",
    "prescriptions": 2931,
    "cost": 1979.4199999999998
  },
  "A85013": {
    "name": "MILLENNIUM FAMILY PRACTICE",
    "lat": 54.963062,
    "lng": -1.603724,
    "postcode": "NE8 1AD",
    "la": "Gateshead",
    "prescriptions": 1659,
    "cost": 1072.52
  },
  "A85014": {
    "name": "CRAWCROOK MEDICAL CENTRE",
    "lat": 54.965705,
    "lng": -1.787502,
    "postcode": "NE40 4US",
    "la": "Gateshead",
    "prescriptions": 6154,
    "cost": 4856.8099999999995
  },
  "A85016": {
    "name": "WREKENTON MEDICAL GROUP",
    "lat": 54.925579,
    "lng": -1.571387,
    "postcode": "NE9 7AD",
    "la": "Gateshead",
    "prescriptions": 4850,
    "cost": 3217.84
  },
  "A85017": {
    "name": "BEWICK ROAD SURGERY",
    "lat": 54.956406,
    "lng": -1.601666,
    "postcode": "NE8 4DP",
    "la": "Gateshead",
    "prescriptions": 1506,
    "cost": 1108.8799999999999
  },
  "A85018": {
    "name": "OLDWELL SURGERY",
    "lat": 54.95518,
    "lng": -1.723614,
    "postcode": "NE21 4RD",
    "la": "Gateshead",
    "prescriptions": 1461,
    "cost": 1343.4499999999998
  },
  "A85019": {
    "name": "CENTRAL GATESHEAD MEDICAL GROUP",
    "lat": 54.956486,
    "lng": -1.60432,
    "postcode": "NE8 1NB",
    "la": "Gateshead",
    "prescriptions": 2516,
    "cost": 2214.9500000000003
  },
  "A85020": {
    "name": "WHICKHAM COTTAGE MEDICAL CENTRE",
    "lat": 54.945387,
    "lng": -1.677238,
    "postcode": "NE16 4PD",
    "la": "Gateshead",
    "prescriptions": 4023,
    "cost": 3581.75
  },
  "A85021": {
    "name": "SECOND STREET SURGERY",
    "lat": 54.954651,
    "lng": -1.614924,
    "postcode": "NE8 2UR",
    "la": "Gateshead",
    "prescriptions": 750,
    "cost": 508.96999999999997
  },
  "A85024": {
    "name": "CHOPWELL PRIMARY HEALTHCARE CENTRE",
    "lat": 54.919792,
    "lng": -1.813484,
    "postcode": "NE17 7BU",
    "la": "Gateshead",
    "prescriptions": 1147,
    "cost": 1001.25
  },
  "A85026": {
    "name": "BEACON VIEW MEDICAL CENTRE",
    "lat": 54.933073,
    "lng": -1.584214,
    "postcode": "NE9 6YS",
    "la": "Gateshead",
    "prescriptions": 1839,
    "cost": 1317.19
  },
  "A85611": {
    "name": "PELAW MEDICAL PRACTICE",
    "lat": 54.954725,
    "lng": -1.54038,
    "postcode": "NE10 0RR",
    "la": "Gateshead",
    "prescriptions": 1716,
    "cost": 1226.95
  },
  "A85614": {
    "name": "THE BRIDGES MEDICAL PRACTICE",
    "lat": 54.963062,
    "lng": -1.603724,
    "postcode": "NE8 1AD",
    "la": "Gateshead",
    "prescriptions": 1623,
    "cost": 1316.4900000000002
  },
  "A85616": {
    "name": "HOLLYHURST MEDICAL CENTRE",
    "lat": 54.95518,
    "lng": -1.723614,
    "postcode": "NE21 4RD",
    "la": "Gateshead",
    "prescriptions": 1700,
    "cost": 1321.62
  },
  "A85617": {
    "name": "SUNNISIDE SURGERY",
    "lat": 54.922943,
    "lng": -1.675093,
    "postcode": "NE16 5LP",
    "la": "Gateshead",
    "prescriptions": 1233,
    "cost": 976.74
  },
  "A86003": {
    "name": "SAVILLE MEDICAL GROUP",
    "lat": 54.976102,
    "lng": -1.609612,
    "postcode": "NE1 8DQ",
    "la": "Newcastle upon Tyne",
    "prescriptions": 4765,
    "cost": 3696.7799999999997
  },
  "A86004": {
    "name": "PROSPECT MEDICAL CENTRE",
    "lat": 54.974192,
    "lng": -1.646202,
    "postcode": "NE4 8AY",
    "la": "Newcastle upon Tyne",
    "prescriptions": 3600,
    "cost": 2716.2200000000003
  },
  "A86005": {
    "name": "WEST FARM SURGERY",
    "lat": 55.01207,
    "lng": -1.584072,
    "postcode": "NE12 8LS",
    "la": "North Tyneside",
    "prescriptions": 2284,
    "cost": 3361.46
  },
  "A86006": {
    "name": "ROSEWORTH SURGERY",
    "lat": 55.001373,
    "lng": -1.618685,
    "postcode": "NE3 1NB",
    "la": "Newcastle upon Tyne",
    "prescriptions": 1567,
    "cost": 1315.6599999999999
  },
  "A86008": {
    "name": "PARK MEDICAL GROUP",
    "lat": 55.013936,
    "lng": -1.645385,
    "postcode": "NE3 2PE",
    "la": "Newcastle upon Tyne",
    "prescriptions": 3308,
    "cost": 3464.92
  },
  "A86010": {
    "name": "BIDDLESTONE HEALTH GROUP",
    "lat": 54.989193,
    "lng": -1.576744,
    "postcode": "NE6 5SL",
    "la": "Newcastle upon Tyne",
    "prescriptions": 1917,
    "cost": 1836.4899999999998
  },
  "A86011": {
    "name": "WALKER MEDICAL GROUP",
    "lat": 54.972446,
    "lng": -1.545239,
    "postcode": "NE6 3BS",
    "la": "Newcastle upon Tyne",
    "prescriptions": 5258,
    "cost": 3285.84
  },
  "A86012": {
    "name": "WEST ROAD MEDICAL CENTRE",
    "lat": 54.976216,
    "lng": -1.656276,
    "postcode": "NE4 9QB",
    "la": "Newcastle upon Tyne",
    "prescriptions": 3329,
    "cost": 2200.22
  },
  "A86013": {
    "name": "DENTON PARK MEDICAL GROUP",
    "lat": 54.993115,
    "lng": -1.69874,
    "postcode": "NE5 2QW",
    "la": "Newcastle upon Tyne",
    "prescriptions": 2646,
    "cost": 2034.9899999999998
  },
  "A86016": {
    "name": "LANE END SURGERY",
    "lat": 55.008911,
    "lng": -1.577241,
    "postcode": "NE7 7XX",
    "la": "North Tyneside",
    "prescriptions": 2120,
    "cost": 1830.8600000000001
  },
  "A86017": {
    "name": "CRUDDAS PARK SURGERY",
    "lat": 54.96818,
    "lng": -1.630978,
    "postcode": "NE4 7JT",
    "la": "Newcastle upon Tyne",
    "prescriptions": 3678,
    "cost": 2431.55
  },
  "A86018": {
    "name": "THE GROVE MEDICAL GROUP",
    "lat": 55.002183,
    "lng": -1.6191,
    "postcode": "NE3 1NU",
    "la": "Newcastle upon Tyne",
    "prescriptions": 2738,
    "cost": 2440.31
  },
  "A86020": {
    "name": "JESMOND HEALTH PARTNERSHIP",
    "lat": 54.996392,
    "lng": -1.609276,
    "postcode": "NE2 3LD",
    "la": "Newcastle upon Tyne",
    "prescriptions": 4484,
    "cost": 4149.22
  },
  "A86021": {
    "name": "HOLMSIDE MEDICAL GROUP",
    "lat": 54.968974,
    "lng": -1.659977,
    "postcode": "NE4 8QB",
    "la": "Newcastle upon Tyne",
    "prescriptions": 3768,
    "cost": 2436.35
  },
  "A86022": {
    "name": "PARKWAY MEDICAL GROUP",
    "lat": 54.996847,
    "lng": -1.71514,
    "postcode": "NE5 1LJ",
    "la": "Newcastle upon Tyne",
    "prescriptions": 2324,
    "cost": 1832.5100000000002
  },
  "A86023": {
    "name": "BENFIELD PARK MEDICAL GROUP",
    "lat": 54.989373,
    "lng": -1.56163,
    "postcode": "NE6 4QD",
    "la": "Newcastle upon Tyne",
    "prescriptions": 2574,
    "cost": 2120.35
  },
  "A86024": {
    "name": "HEATON ROAD SURGERY",
    "lat": 54.97833,
    "lng": -1.579858,
    "postcode": "NE6 1SA",
    "la": "Newcastle upon Tyne",
    "prescriptions": 2081,
    "cost": 1354.93
  },
  "A86025": {
    "name": "WESTERHOPE MEDICAL GROUP",
    "lat": 54.997784,
    "lng": -1.686826,
    "postcode": "NE5 2LH",
    "la": "Newcastle upon Tyne",
    "prescriptions": 4077,
    "cost": 3113.37
  },
  "A86026": {
    "name": "THROCKLEY PRIMARY CARE CENTRE",
    "lat": 54.992889,
    "lng": -1.758867,
    "postcode": "NE15 9PA",
    "la": "Newcastle upon Tyne",
    "prescriptions": 2748,
    "cost": 1744.9199999999998
  },
  "A86027": {
    "name": "NEWCASTLE MEDICAL CENTRE",
    "lat": 54.975139,
    "lng": -1.614776,
    "postcode": "NE1 7XR",
    "la": "Newcastle upon Tyne",
    "prescriptions": 493,
    "cost": 448.78000000000003
  },
  "A86028": {
    "name": "REGENT MEDICAL CENTRE",
    "lat": 55.009015,
    "lng": -1.622819,
    "postcode": "NE3 1DQ",
    "la": "Newcastle upon Tyne",
    "prescriptions": 1594,
    "cost": 1800.9199999999998
  },
  "A86029": {
    "name": "THORNFIELD MEDICAL GROUP",
    "lat": 54.977507,
    "lng": -1.583491,
    "postcode": "NE6 1SG",
    "la": "Newcastle upon Tyne",
    "prescriptions": 6596,
    "cost": 4465.71
  },
  "A86030": {
    "name": "BETTS AVENUE MEDICAL GROUP",
    "lat": 54.973295,
    "lng": -1.675876,
    "postcode": "NE15 6TQ",
    "la": "Newcastle upon Tyne",
    "prescriptions": 3896,
    "cost": 2894.98
  },
  "A86031": {
    "name": "FENHAM HALL SURGERY",
    "lat": 54.984458,
    "lng": -1.660239,
    "postcode": "NE4 9XD",
    "la": "Newcastle upon Tyne",
    "prescriptions": 2615,
    "cost": 2700.53
  },
  "A86033": {
    "name": "BRUNTON PARK",
    "lat": 55.026974,
    "lng": -1.627123,
    "postcode": "NE3 5NF",
    "la": "Newcastle upon Tyne",
    "prescriptions": 1110,
    "cost": 984.41
  },
  "A86037": {
    "name": "ELSWICK FAMILY PRACTICE",
    "lat": 54.969322,
    "lng": -1.640464,
    "postcode": "NE4 6SH",
    "la": "Newcastle upon Tyne",
    "prescriptions": 2814,
    "cost": 1897.36
  },
  "A86038": {
    "name": "NEWBURN SURGERY",
    "lat": 54.985651,
    "lng": -1.743628,
    "postcode": "NE15 8LX",
    "la": "Newcastle upon Tyne",
    "prescriptions": 2317,
    "cost": 1694.91
  },
  "A86040": {
    "name": "ST. ANTHONY'S HEALTH CENTRE",
    "lat": 54.966368,
    "lng": -1.556444,
    "postcode": "NE6 2NN",
    "la": "Newcastle upon Tyne",
    "prescriptions": 2534,
    "cost": 1615.49
  },
  "A86041": {
    "name": "SWARLAND AVENUE SURGERY",
    "lat": 55.006372,
    "lng": -1.578644,
    "postcode": "NE7 7TD",
    "la": "Newcastle upon Tyne",
    "prescriptions": 1748,
    "cost": 1241.0800000000002
  },
  "A86601": {
    "name": "DENTON TURRET MEDICAL CENTRE",
    "lat": 54.983935,
    "lng": -1.686401,
    "postcode": "NE5 2UY",
    "la": "Newcastle upon Tyne",
    "prescriptions": 3441,
    "cost": 2133.1
  },
  "A87002": {
    "name": "SPRING TERRACE HEALTH CENTRE",
    "lat": 55.010593,
    "lng": -1.451379,
    "postcode": "NE29 0HD",
    "la": "North Tyneside",
    "prescriptions": 6365,
    "cost": 4941.4
  },
  "A87004": {
    "name": "COLLINGWOOD HEALTH GROUP",
    "lat": 55.0112,
    "lng": -1.456609,
    "postcode": "NE29 0SF",
    "la": "North Tyneside",
    "prescriptions": 4960,
    "cost": 5149.45
  },
  "A87005": {
    "name": "WHITLEY BAY HEALTH CENTRE",
    "lat": 55.041417,
    "lng": -1.439973,
    "postcode": "NE26 2ND",
    "la": "North Tyneside",
    "prescriptions": 2217,
    "cost": 2729.77
  },
  "A87007": {
    "name": "STEPHENSON PARK HEALTH GROUP",
    "lat": 55.020362,
    "lng": -1.56758,
    "postcode": "NE12 9BQ",
    "la": "North Tyneside",
    "prescriptions": 4840,
    "cost": 4129.39
  },
  "A87008": {
    "name": "MARINE AVENUE MEDICAL CTR",
    "lat": 55.044028,
    "lng": -1.456948,
    "postcode": "NE26 3LW",
    "la": "North Tyneside",
    "prescriptions": 1272,
    "cost": 1440.79
  },
  "A87009": {
    "name": "PRIORY MEDICAL GROUP",
    "lat": 55.010039,
    "lng": -1.450136,
    "postcode": "NE29 0HT",
    "la": "North Tyneside",
    "prescriptions": 4003,
    "cost": 3056.66
  },
  "A87011": {
    "name": "BEAUMONT PARK SURGERY",
    "lat": 55.04809,
    "lng": -1.473405,
    "postcode": "NE25 9XJ",
    "la": "North Tyneside",
    "prescriptions": 1321,
    "cost": 1155.74
  },
  "A87012": {
    "name": "WIDEOPEN MEDICAL CENTRE",
    "lat": 55.048263,
    "lng": -1.624531,
    "postcode": "NE13 6LN",
    "la": "North Tyneside",
    "prescriptions": 2299,
    "cost": 1680.09
  },
  "A87013": {
    "name": "BEWICKE MEDICAL CENTRE",
    "lat": 54.996639,
    "lng": -1.49976,
    "postcode": "NE28 0AD",
    "la": "North Tyneside",
    "prescriptions": 2586,
    "cost": 2620.08
  },
  "A87016": {
    "name": "THE VILLAGE GREEN SURGERY",
    "lat": 54.996316,
    "lng": -1.529292,
    "postcode": "NE28 6BB",
    "la": "North Tyneside",
    "prescriptions": 3267,
    "cost": 2440.88
  },
  "A87017": {
    "name": "WOODLANDS PARK HEALTH CTR",
    "lat": 55.046147,
    "lng": -1.628839,
    "postcode": "NE13 6JJ",
    "la": "North Tyneside",
    "prescriptions": 2089,
    "cost": 1426.62
  },
  "A87020": {
    "name": "BRIDGE AND MONKSEATON MEDICAL PRACTICE",
    "lat": 55.036765,
    "lng": -1.472834,
    "postcode": "NE25 9PH",
    "la": "North Tyneside",
    "prescriptions": 2690,
    "cost": 2219.84
  },
  "A87022": {
    "name": "NORTHUMBERLAND PARK MEDICAL GROUP",
    "lat": 55.03768,
    "lng": -1.506714,
    "postcode": "NE27 0HJ",
    "la": "North Tyneside",
    "prescriptions": 1852,
    "cost": 1552.2
  },
  "A87029": {
    "name": "HADRIAN HEALTH CENTRE",
    "lat": 54.992013,
    "lng": -1.536641,
    "postcode": "NE28 8QU",
    "la": "North Tyneside",
    "prescriptions": 5938,
    "cost": 4752.17
  },
  "A87030": {
    "name": "REDBURN PARK MEDICAL CENTRE",
    "lat": 55.000928,
    "lng": -1.474788,
    "postcode": "NE29 6HT",
    "la": "North Tyneside",
    "prescriptions": 1241,
    "cost": 1174.8100000000002
  },
  "A87612": {
    "name": "WELLSPRING MEDICAL PRACT.",
    "lat": 55.037297,
    "lng": -1.56408,
    "postcode": "NE12 6HS",
    "la": "North Tyneside",
    "prescriptions": 2279,
    "cost": 1863.2800000000002
  },
  "A87615": {
    "name": "MALLARD MEDICAL PRACTICE",
    "lat": 55.037297,
    "lng": -1.56408,
    "postcode": "NE12 6HS",
    "la": "North Tyneside",
    "prescriptions": 1309,
    "cost": 1108.24
  },
  "A88001": {
    "name": "VICTORIA MEDICAL CENTRE",
    "lat": 54.973937,
    "lng": -1.521601,
    "postcode": "NE31 1NU",
    "la": "South Tyneside",
    "prescriptions": 1108,
    "cost": 944.6899999999999
  },
  "A88002": {
    "name": "FARNHAM MEDICAL CTR.",
    "lat": 54.975584,
    "lng": -1.438077,
    "postcode": "NE33 4QY",
    "la": "South Tyneside",
    "prescriptions": 4634,
    "cost": 3901.66
  },
  "A88003": {
    "name": "MARSDEN MEDICAL GROUP",
    "lat": 54.980472,
    "lng": -1.40015,
    "postcode": "NE34 6RE",
    "la": "South Tyneside",
    "prescriptions": 5819,
    "cost": 5662.900000000001
  },
  "A88004": {
    "name": "MAYFIELD MEDICAL GROUP",
    "lat": 54.977889,
    "lng": -1.496462,
    "postcode": "NE32 5SE",
    "la": "South Tyneside",
    "prescriptions": 2497,
    "cost": 2549.96
  },
  "A88005": {
    "name": "WENLOCK ROAD SURGERY",
    "lat": 54.972643,
    "lng": -1.45524,
    "postcode": "NE34 9BP",
    "la": "South Tyneside",
    "prescriptions": 1592,
    "cost": 1105.5900000000001
  },
  "A88006": {
    "name": "TALBOT MEDICAL CENTRE",
    "lat": 54.972932,
    "lng": -1.441738,
    "postcode": "NE34 0BX",
    "la": "South Tyneside",
    "prescriptions": 2392,
    "cost": 2025.03
  },
  "A88008": {
    "name": "TRINITY MEDICAL CENTRE",
    "lat": 54.987701,
    "lng": -1.436798,
    "postcode": "NE33 5DU",
    "la": "South Tyneside",
    "prescriptions": 2082,
    "cost": 1573.9299999999998
  },
  "A88009": {
    "name": "DR THORNILEY-WALKER & PARTNERS",
    "lat": 54.94977,
    "lng": -1.460717,
    "postcode": "NE35 9AN",
    "la": "South Tyneside",
    "prescriptions": 1852,
    "cost": 1337.9300000000003
  },
  "A88010": {
    "name": "ALBERT ROAD SURGERY",
    "lat": 54.978075,
    "lng": -1.491507,
    "postcode": "NE32 5AG",
    "la": "South Tyneside",
    "prescriptions": 1634,
    "cost": 1390.81
  },
  "A88012": {
    "name": "ELLISON VIEW SURGERY",
    "lat": 54.973937,
    "lng": -1.521601,
    "postcode": "NE31 1NU",
    "la": "South Tyneside",
    "prescriptions": 1693,
    "cost": 1305.46
  },
  "A88013": {
    "name": "CENTRAL SURGERY",
    "lat": 54.971299,
    "lng": -1.415314,
    "postcode": "NE34 8PS",
    "la": "South Tyneside",
    "prescriptions": 4947,
    "cost": 4567.719999999999
  },
  "A88014": {
    "name": "WEST VIEW SURGERY",
    "lat": 54.984988,
    "lng": -1.431179,
    "postcode": "NE33 4JP",
    "la": "South Tyneside",
    "prescriptions": 733,
    "cost": 446.20000000000005
  },
  "A88015": {
    "name": "ST GEORGE & RIVERSIDE MEDICAL PRACTICE",
    "lat": 54.987701,
    "lng": -1.436798,
    "postcode": "NE33 5DU",
    "la": "South Tyneside",
    "prescriptions": 2753,
    "cost": 1842.5900000000001
  },
  "A88016": {
    "name": "COLLIERY COURT MEDICAL GROUP",
    "lat": 54.94977,
    "lng": -1.460717,
    "postcode": "NE35 9AN",
    "la": "South Tyneside",
    "prescriptions": 2209,
    "cost": 1996.9299999999998
  },
  "A88022": {
    "name": "THE GLEN MEDICAL GROUP",
    "lat": 54.973937,
    "lng": -1.521601,
    "postcode": "NE31 1NU",
    "la": "South Tyneside",
    "prescriptions": 3008,
    "cost": 2410.56
  },
  "A88023": {
    "name": "WHITBURN SURGERY",
    "lat": 54.952803,
    "lng": -1.364681,
    "postcode": "SR6 7EE",
    "la": "South Tyneside",
    "prescriptions": 1699,
    "cost": 1589.62
  },
  "A88025": {
    "name": "THE G.P.SUITE",
    "lat": 54.980665,
    "lng": -1.49199,
    "postcode": "NE32 3UX",
    "la": "South Tyneside",
    "prescriptions": 986,
    "cost": 1209.25
  },
  "A88601": {
    "name": "IMEARY MEDICAL GROUP",
    "lat": 54.984988,
    "lng": -1.431179,
    "postcode": "NE33 4JP",
    "la": "South Tyneside",
    "prescriptions": 1209,
    "cost": 924.12
  },
  "A88608": {
    "name": "RAVENSWORTH SURGERY",
    "lat": 54.988389,
    "lng": -1.420598,
    "postcode": "NE33 3ET",
    "la": "South Tyneside",
    "prescriptions": 1848,
    "cost": 1539.9199999999998
  },
  "A88613": {
    "name": "EAST WING PRACTICE",
    "lat": 54.980665,
    "lng": -1.49199,
    "postcode": "NE32 3UX",
    "la": "South Tyneside",
    "prescriptions": 1447,
    "cost": 1008.42
  },
  "A89001": {
    "name": "DEERNESS PARK MEDICAL GROUP",
    "lat": 54.89995,
    "lng": -1.372764,
    "postcode": "SR2 8AD",
    "la": "Sunderland",
    "prescriptions": 5320,
    "cost": 3653.49
  },
  "A89002": {
    "name": "RIVERVIEW SURGERY",
    "lat": 54.905525,
    "lng": -1.373254,
    "postcode": "SR1 2HJ",
    "la": "Sunderland",
    "prescriptions": 2664,
    "cost": 1581.8500000000001
  },
  "A89004": {
    "name": "HETTON GROUP PRACTICE",
    "lat": 54.825356,
    "lng": -1.449129,
    "postcode": "DH5 9EZ",
    "la": "Sunderland",
    "prescriptions": 5208,
    "cost": 3679.88
  },
  "A89005": {
    "name": "VILLETTE SURGERY",
    "lat": 54.897475,
    "lng": -1.368436,
    "postcode": "SR2 8AX",
    "la": "Sunderland",
    "prescriptions": 1955,
    "cost": 1565.8199999999997
  },
  "A89006": {
    "name": "WEARSIDE MEDICAL PRACTICE - PALLION",
    "lat": 54.908604,
    "lng": -1.414195,
    "postcode": "SR4 7XF",
    "la": "Sunderland",
    "prescriptions": 2540,
    "cost": 3637.7999999999997
  },
  "A89007": {
    "name": "PALLION FAMILY PRACTICE",
    "lat": 54.908604,
    "lng": -1.414195,
    "postcode": "SR4 7XF",
    "la": "Sunderland",
    "prescriptions": 3057,
    "cost": 2843.7799999999997
  },
  "A89008": {
    "name": "RED HOUSE MEDICAL CENTRE",
    "lat": 54.925465,
    "lng": -1.424077,
    "postcode": "SR5 5PS",
    "la": "Sunderland",
    "prescriptions": 2427,
    "cost": 1906.5700000000002
  },
  "A89009": {
    "name": "HERRINGTON MEDICAL CENTRE",
    "lat": 54.865694,
    "lng": -1.48334,
    "postcode": "DH4 4LE",
    "la": "Sunderland",
    "prescriptions": 2316,
    "cost": 2106.61
  },
  "A89010": {
    "name": "THE STEPHENSON MEDICAL PRACTICE",
    "lat": 54.913419,
    "lng": -1.524877,
    "postcode": "NE37 2PU",
    "la": "Sunderland",
    "prescriptions": 3555,
    "cost": 3383.5699999999997
  },
  "A89011": {
    "name": "VILLAGE SURGERY PARTNERSHIP",
    "lat": 54.870962,
    "lng": -1.40723,
    "postcode": "SR3 2AN",
    "la": "Sunderland",
    "prescriptions": 1507,
    "cost": 1201.5700000000002
  },
  "A89012": {
    "name": "GALLERIES MEDICAL PRACTICE",
    "lat": 54.898823,
    "lng": -1.531254,
    "postcode": "NE38 7NQ",
    "la": "Sunderland",
    "prescriptions": 4743,
    "cost": 3394.88
  },
  "A89013": {
    "name": "THE NEW CITY MEDICAL GROUP",
    "lat": 54.904436,
    "lng": -1.376609,
    "postcode": "SR1 2QB",
    "la": "Sunderland",
    "prescriptions": 1764,
    "cost": 1273.82
  },
  "A89015": {
    "name": "FULWELL MEDICAL CENTRE,",
    "lat": 54.930494,
    "lng": -1.383025,
    "postcode": "SR6 8DZ",
    "la": "Sunderland",
    "prescriptions": 2507,
    "cost": 2177.23
  },
  "A89016": {
    "name": "ST BEDE MEDICAL CENTRE",
    "lat": 54.913844,
    "lng": -1.378179,
    "postcode": "SR6 0QQ",
    "la": "Sunderland",
    "prescriptions": 2801,
    "cost": 2144.45
  },
  "A89017": {
    "name": "MILLFIELD MEDICAL GROUP",
    "lat": 54.906923,
    "lng": -1.395769,
    "postcode": "SR4 7AF",
    "la": "Sunderland",
    "prescriptions": 3652,
    "cost": 3722.33
  },
  "A89018": {
    "name": "ASHBURN MEDICAL CENTRE",
    "lat": 54.905525,
    "lng": -1.373254,
    "postcode": "SR1 2HJ",
    "la": "Sunderland",
    "prescriptions": 1813,
    "cost": 1305.03
  },
  "A89019": {
    "name": "BRIDGE VIEW MEDICAL GROUP",
    "lat": 54.919462,
    "lng": -1.401838,
    "postcode": "SR5 2LT",
    "la": "Sunderland",
    "prescriptions": 6413,
    "cost": 4158.049999999999
  },
  "A89020": {
    "name": "FORGE MEDICAL PRACTICE",
    "lat": 54.910071,
    "lng": -1.412708,
    "postcode": "SR4 6QE",
    "la": "Sunderland",
    "prescriptions": 2443,
    "cost": 2133.6800000000003
  },
  "A89021": {
    "name": "KEPIER MEDICAL PRACTICE",
    "lat": 54.845059,
    "lng": -1.478636,
    "postcode": "DH4 5EQ",
    "la": "Sunderland",
    "prescriptions": 2566,
    "cost": 2712.4500000000003
  },
  "A89022": {
    "name": "CONCORD MEDICAL PRACTICE",
    "lat": 54.913419,
    "lng": -1.524877,
    "postcode": "NE37 2PU",
    "la": "Sunderland",
    "prescriptions": 1596,
    "cost": 1821.8200000000002
  },
  "A89023": {
    "name": "HOUGHTON MEDICAL GROUP,",
    "lat": 54.84275,
    "lng": -1.468326,
    "postcode": "DH4 4DN",
    "la": "Sunderland",
    "prescriptions": 2972,
    "cost": 2308.09
  },
  "A89024": {
    "name": "THE BROADWAY MEDICAL PRACTICE",
    "lat": 54.890248,
    "lng": -1.422194,
    "postcode": "SR3 4HG",
    "la": "Sunderland",
    "prescriptions": 2518,
    "cost": 2125.22
  },
  "A89025": {
    "name": "SUNDERLAND GP ALLIANCE MEDICAL PRACTICE",
    "lat": 54.898823,
    "lng": -1.531254,
    "postcode": "NE38 7NQ",
    "la": "Sunderland",
    "prescriptions": 2918,
    "cost": 2932.21
  },
  "A89026": {
    "name": "NEW WASHINGTON MEDICAL GROUP",
    "lat": 54.913419,
    "lng": -1.524877,
    "postcode": "NE37 2PU",
    "la": "Sunderland",
    "prescriptions": 2275,
    "cost": 1729.11
  },
  "A89027": {
    "name": "SPRINGWELL MEDICAL GROUP",
    "lat": 54.890248,
    "lng": -1.422194,
    "postcode": "SR3 4HG",
    "la": "Sunderland",
    "prescriptions": 1924,
    "cost": 1615.3999999999999
  },
  "A89028": {
    "name": "GRANGEWOOD SURGERY",
    "lat": 54.866423,
    "lng": -1.498724,
    "postcode": "DH4 4RB",
    "la": "Sunderland",
    "prescriptions": 2869,
    "cost": 2030.94
  },
  "A89030": {
    "name": "WESTBOURNE MEDICAL GROUP",
    "lat": 54.866877,
    "lng": -1.495478,
    "postcode": "DH4 4RW",
    "la": "Sunderland",
    "prescriptions": 3380,
    "cost": 1985.87
  },
  "A89031": {
    "name": "HYLTON MEDICAL GROUP",
    "lat": 54.908604,
    "lng": -1.414195,
    "postcode": "SR4 7XF",
    "la": "Sunderland",
    "prescriptions": 1707,
    "cost": 1350.08
  },
  "A89032": {
    "name": "NEW SILKSWORTH MEDICAL PRACTICE",
    "lat": 54.870962,
    "lng": -1.40723,
    "postcode": "SR3 2AN",
    "la": "Sunderland",
    "prescriptions": 2645,
    "cost": 2052.81
  },
  "A89034": {
    "name": "PARK LANE PRACTICE",
    "lat": 54.901313,
    "lng": -1.384391,
    "postcode": "SR2 7BA",
    "la": "Sunderland",
    "prescriptions": 854,
    "cost": 742.2099999999999
  },
  "A89035": {
    "name": "SOUTHLANDS MEDICAL GROUP",
    "lat": 54.871568,
    "lng": -1.368857,
    "postcode": "SR2 0RY",
    "la": "Sunderland",
    "prescriptions": 4186,
    "cost": 2701.5099999999998
  },
  "A89036": {
    "name": "CASTLETOWN MEDICAL CENTRE",
    "lat": 54.91335,
    "lng": -1.450862,
    "postcode": "SR5 3EX",
    "la": "Sunderland",
    "prescriptions": 866,
    "cost": 501.8
  },
  "A89040": {
    "name": "MONKWEARMOUTH HEALTH CENTRE",
    "lat": 54.913143,
    "lng": -1.381668,
    "postcode": "SR6 0AB",
    "la": "Sunderland",
    "prescriptions": 2083,
    "cost": 1328.7999999999997
  },
  "A89041": {
    "name": "HAPPY HOUSE SURGERY",
    "lat": 54.88502,
    "lng": -1.422799,
    "postcode": "SR3 4BY",
    "la": "Sunderland",
    "prescriptions": 2286,
    "cost": 1632.2
  },
  "A89614": {
    "name": "SUNDERLAND GP ALLIANCE SOUTH HYLTON SURG",
    "lat": 54.904232,
    "lng": -1.449629,
    "postcode": "SR4 0LS",
    "la": "Sunderland",
    "prescriptions": 1768,
    "cost": 1195.63
  },
  "A89616": {
    "name": "RICKLETON MEDICAL CENTRE",
    "lat": 54.880202,
    "lng": -1.547508,
    "postcode": "NE38 9EH",
    "la": "Sunderland",
    "prescriptions": 989,
    "cost": 745.93
  },
  "A89617": {
    "name": "I J HEALTHCARE",
    "lat": 54.881048,
    "lng": -1.531367,
    "postcode": "NE38 9AB",
    "la": "Sunderland",
    "prescriptions": 1283,
    "cost": 988.97
  },
  "A89623": {
    "name": "CHESTER SURGERY",
    "lat": 54.901082,
    "lng": -1.406788,
    "postcode": "SR4 7TU",
    "la": "Sunderland",
    "prescriptions": 645,
    "cost": 579.53
  },
  "B81003": {
    "name": "BEACON MEDICAL",
    "lat": 53.557025,
    "lng": -0.037668,
    "postcode": "DN35 8EB",
    "la": "North East Lincolnshire",
    "prescriptions": 3447,
    "cost": 3255.6099999999997
  },
  "B81004": {
    "name": "EASTGATE MEDICAL GROUP, HORNSEA",
    "lat": 53.915298,
    "lng": -0.168259,
    "postcode": "HU18 1LP",
    "la": "East Riding of Yorkshire",
    "prescriptions": 4717,
    "cost": 3676.4299999999994
  },
  "B81005": {
    "name": "THE CENTRAL SURGERY BARTON",
    "lat": 53.684255,
    "lng": -0.43945,
    "postcode": "DN18 5ER",
    "la": "North Lincolnshire",
    "prescriptions": 6118,
    "cost": 4544.35
  },
  "B81006": {
    "name": "HUMBER PRIMARY CARE",
    "lat": 54.085967,
    "lng": -0.186837,
    "postcode": "YO15 2QW",
    "la": "East Riding of Yorkshire",
    "prescriptions": 3826,
    "cost": 3026.74
  },
  "B81007": {
    "name": "WINTERTON MEDICAL PRACTICE",
    "lat": 53.652531,
    "lng": -0.606881,
    "postcode": "DN15 9TA",
    "la": "North Lincolnshire",
    "prescriptions": 3932,
    "cost": 2869.8100000000004
  },
  "B81008": {
    "name": "HULL FAMILY PRACTICE",
    "lat": 53.754966,
    "lng": -0.30901,
    "postcode": "HU9 2LJ",
    "la": "Kingston upon Hull, City of",
    "prescriptions": 11207,
    "cost": 11069.73
  },
  "B81009": {
    "name": "MARKET WEIGHTON GROUP PRACTICE",
    "lat": 53.864923,
    "lng": -0.674793,
    "postcode": "YO43 3FF",
    "la": "East Riding of Yorkshire",
    "prescriptions": 2329,
    "cost": 2602.15
  },
  "B81011": {
    "name": "KINGSTON HEALTH (HULL)",
    "lat": 53.742031,
    "lng": -0.384664,
    "postcode": "HU3 5QE",
    "la": "Kingston upon Hull, City of",
    "prescriptions": 3263,
    "cost": 2787.06
  },
  "B81012": {
    "name": "DR AP KUMAR",
    "lat": 53.573306,
    "lng": -0.058663,
    "postcode": "DN31 3AE",
    "la": "North East Lincolnshire",
    "prescriptions": 1005,
    "cost": 915.27
  },
  "B81013": {
    "name": "MONTAGUE MEDICAL PRACTICE",
    "lat": 53.707051,
    "lng": -0.872904,
    "postcode": "DN14 6JD",
    "la": "East Riding of Yorkshire",
    "prescriptions": 1807,
    "cost": 1753.63
  },
  "B81015": {
    "name": "CLEE MEDICAL CENTRE",
    "lat": 53.566248,
    "lng": -0.041439,
    "postcode": "DN35 7XE",
    "la": "North East Lincolnshire",
    "prescriptions": 4879,
    "cost": 4085.04
  },
  "B81016": {
    "name": "PELHAM MEDICAL GROUP",
    "lat": 53.563229,
    "lng": -0.091679,
    "postcode": "DN31 1QZ",
    "la": "North East Lincolnshire",
    "prescriptions": 1996,
    "cost": 1776.6399999999999
  },
  "B81017": {
    "name": "THE QUAYS MEDICAL PRACTICE",
    "lat": 53.746241,
    "lng": -0.342102,
    "postcode": "HU1 3SA",
    "la": "Kingston upon Hull, City of",
    "prescriptions": 3177,
    "cost": 4885.4
  },
  "B81018": {
    "name": "ORCHARD 2000 GROUP",
    "lat": 53.786392,
    "lng": -0.370028,
    "postcode": "HU6 9BS",
    "la": "Kingston upon Hull, City of",
    "prescriptions": 3068,
    "cost": 2125.16
  },
  "B81020": {
    "name": "THE SUTTON MANOR SURGERY",
    "lat": 53.785779,
    "lng": -0.315301,
    "postcode": "HU7 4PT",
    "la": "Kingston upon Hull, City of",
    "prescriptions": 2926,
    "cost": 2304.36
  },
  "B81022": {
    "name": "CAMBRIDGE AVENUE & MESSINGHAM MC",
    "lat": 53.558384,
    "lng": -0.651853,
    "postcode": "DN16 3LG",
    "la": "North Lincolnshire",
    "prescriptions": 4266,
    "cost": 3643.62
  },
  "B81024": {
    "name": "WILLERBY AND SWANLAND SURGERY",
    "lat": 53.740089,
    "lng": -0.433515,
    "postcode": "HU10 7JR",
    "la": "East Riding of Yorkshire",
    "prescriptions": 1871,
    "cost": 2616.91
  },
  "B81025": {
    "name": "HOLDERNESS HEALTH",
    "lat": 53.728739,
    "lng": 0.034928,
    "postcode": "HU19 2PZ",
    "la": "East Riding of Yorkshire",
    "prescriptions": 11420,
    "cost": 9313.98
  },
  "B81026": {
    "name": "ANCORA MEDICAL PRACTICE",
    "lat": 53.570935,
    "lng": -0.65529,
    "postcode": "DN16 2AB",
    "la": "North Lincolnshire",
    "prescriptions": 5761,
    "cost": 4918.32
  },
  "B81027": {
    "name": "ST ANDREWS SURGERY",
    "lat": 53.735566,
    "lng": -0.361958,
    "postcode": "HU3 4BB",
    "la": "Kingston upon Hull, City of",
    "prescriptions": 2469,
    "cost": 3328.74
  },
  "B81029": {
    "name": "THE SNAITH AND RAWCLIFFE MEDICAL GROUP",
    "lat": 53.689306,
    "lng": -1.024417,
    "postcode": "DN14 9DY",
    "la": "East Riding of Yorkshire",
    "prescriptions": 3462,
    "cost": 2705.31
  },
  "B81030": {
    "name": "SLC MEDICAL GROUP",
    "lat": 53.536424,
    "lng": -0.094605,
    "postcode": "DN33 3JF",
    "la": "North East Lincolnshire",
    "prescriptions": 6989,
    "cost": 6410.2300000000005
  },
  "B81031": {
    "name": "WOODFIELD MEDICAL",
    "lat": 53.56446,
    "lng": -0.112583,
    "postcode": "DN34 4GB",
    "la": "North East Lincolnshire",
    "prescriptions": 4135,
    "cost": 4442.700000000001
  },
  "B81032": {
    "name": "WILBERFORCE SURGERY",
    "lat": 53.746241,
    "lng": -0.342102,
    "postcode": "HU1 3SA",
    "la": "Kingston upon Hull, City of",
    "prescriptions": 840,
    "cost": 821.5
  },
  "B81034": {
    "name": "LEVEN & BEEFORD MEDICAL PRACTICE",
    "lat": 53.890908,
    "lng": -0.31295,
    "postcode": "HU17 5NL",
    "la": "East Riding of Yorkshire",
    "prescriptions": 3652,
    "cost": 3095.0
  },
  "B81035": {
    "name": "THE AVENUES MEDICAL CENTRE",
    "lat": 53.755653,
    "lng": -0.374221,
    "postcode": "HU5 3TJ",
    "la": "Kingston upon Hull, City of",
    "prescriptions": 1631,
    "cost": 1959.1699999999998
  },
  "B81036": {
    "name": "POCKLINGTON GROUP PRACTICE",
    "lat": 53.92375,
    "lng": -0.780688,
    "postcode": "YO42 2BS",
    "la": "East Riding of Yorkshire",
    "prescriptions": 3913,
    "cost": 3197.1800000000003
  },
  "B81037": {
    "name": "THE PARK SURGERY",
    "lat": 54.009311,
    "lng": -0.43939,
    "postcode": "YO25 6EB",
    "la": "East Riding of Yorkshire",
    "prescriptions": 4543,
    "cost": 4539.23
  },
  "B81038": {
    "name": "THE OAKS MEDICAL CENTRE",
    "lat": 53.73196,
    "lng": -0.395101,
    "postcode": "HU4 6RF",
    "la": "Kingston upon Hull, City of",
    "prescriptions": 2296,
    "cost": 2171.7200000000003
  },
  "B81039": {
    "name": "THE ROXTON PRACTICE",
    "lat": 53.618771,
    "lng": -0.205325,
    "postcode": "DN40 1JW",
    "la": "North East Lincolnshire",
    "prescriptions": 9187,
    "cost": 8671.4
  },
  "B81040": {
    "name": "DR JAD WEIR & PARTNERS",
    "lat": 53.756006,
    "lng": -0.265996,
    "postcode": "HU9 5HH",
    "la": "Kingston upon Hull, City of",
    "prescriptions": 4975,
    "cost": 4252.8
  },
  "B81041": {
    "name": "GILBERDYKE HEALTH CENTRE",
    "lat": 53.754538,
    "lng": -0.731672,
    "postcode": "HU15 2UL",
    "la": "East Riding of Yorkshire",
    "prescriptions": 1846,
    "cost": 1568.03
  },
  "B81042": {
    "name": "MANOR ROAD SURGERY",
    "lat": 53.845293,
    "lng": -0.432573,
    "postcode": "HU17 7BZ",
    "la": "East Riding of Yorkshire",
    "prescriptions": 4059,
    "cost": 2793.69
  },
  "B81043": {
    "name": "SOUTH AXHOLME PRACTICE",
    "lat": 53.526186,
    "lng": -0.822226,
    "postcode": "DN9 1EP",
    "la": "North Lincolnshire",
    "prescriptions": 4437,
    "cost": 3879.85
  },
  "B81045": {
    "name": "ASHBY TURN PRIMARY CARE PARTNERS",
    "lat": 53.565435,
    "lng": -0.653819,
    "postcode": "DN16 2UT",
    "la": "North Lincolnshire",
    "prescriptions": 4584,
    "cost": 4094.25
  },
  "B81046": {
    "name": "THE BRIDGE GROUP PRACTICE",
    "lat": 53.787575,
    "lng": -0.375766,
    "postcode": "HU6 9BX",
    "la": "Kingston upon Hull, City of",
    "prescriptions": 2853,
    "cost": 2324.8700000000003
  },
  "B81047": {
    "name": "WOLSELEY MEDICAL CENTRE",
    "lat": 53.746195,
    "lng": -0.35507,
    "postcode": "HU3 1DS",
    "la": "Kingston upon Hull, City of",
    "prescriptions": 1795,
    "cost": 1871.54
  },
  "B81048": {
    "name": "MODALITY PARTNERSHIP (HULL)",
    "lat": 53.765008,
    "lng": -0.356261,
    "postcode": "HU5 2NT",
    "la": "Kingston upon Hull, City of",
    "prescriptions": 12212,
    "cost": 12998.470000000001
  },
  "B81051": {
    "name": "OLD FIRE STATION SURGERY",
    "lat": 53.840887,
    "lng": -0.435185,
    "postcode": "HU17 8JW",
    "la": "East Riding of Yorkshire",
    "prescriptions": 2022,
    "cost": 2010.82
  },
  "B81052": {
    "name": "PRINCES MEDICAL CENTRE",
    "lat": 53.753364,
    "lng": -0.359931,
    "postcode": "HU5 3QA",
    "la": "Kingston upon Hull, City of",
    "prescriptions": 220,
    "cost": 177.26
  },
  "B81054": {
    "name": "CLIFTON HOUSE MEDICAL CENTRE",
    "lat": 53.759516,
    "lng": -0.34971,
    "postcode": "HU5 2ST",
    "la": "Kingston upon Hull, City of",
    "prescriptions": 3003,
    "cost": 2935.73
  },
  "B81061": {
    "name": "THE RIDINGS MEDICAL GROUP",
    "lat": 53.765239,
    "lng": -0.622072,
    "postcode": "HU15 2JG",
    "la": "East Riding of Yorkshire",
    "prescriptions": 13900,
    "cost": 10898.37
  },
  "B81063": {
    "name": "BRIDGE STREET SURGERY",
    "lat": 53.551705,
    "lng": -0.495124,
    "postcode": "DN20 8NT",
    "la": "North Lincolnshire",
    "prescriptions": 2502,
    "cost": 1748.8100000000002
  },
  "B81064": {
    "name": "CHURCH LANE MEDICAL CENTRE",
    "lat": 53.58548,
    "lng": -0.661778,
    "postcode": "DN15 7AN",
    "la": "North Lincolnshire",
    "prescriptions": 3235,
    "cost": 4052.1900000000005
  },
  "B81068": {
    "name": "BARTHOLOMEW MEDICAL GROUP",
    "lat": 53.714859,
    "lng": -0.875483,
    "postcode": "DN14 6RU",
    "la": "East Riding of Yorkshire",
    "prescriptions": 4958,
    "cost": 4589.38
  },
  "B81069": {
    "name": "DRS REDDY AND NUNN",
    "lat": 54.084715,
    "lng": -0.201064,
    "postcode": "YO16 4LZ",
    "la": "East Riding of Yorkshire",
    "prescriptions": 10874,
    "cost": 8648.89
  },
  "B81074": {
    "name": "CITY HEALTH PRACTICE LTD",
    "lat": 53.756562,
    "lng": -0.306823,
    "postcode": "HU9 2LR",
    "la": "Kingston upon Hull, City of",
    "prescriptions": 4179,
    "cost": 3202.4500000000003
  },
  "B81075": {
    "name": "HASTINGS MEDICAL CENTRE",
    "lat": 53.749862,
    "lng": -0.393433,
    "postcode": "HU5 5BE",
    "la": "Kingston upon Hull, City of",
    "prescriptions": 1031,
    "cost": 1201.17
  },
  "B81082": {
    "name": "NORTH BEVERLEY MEDICAL CENTRE",
    "lat": 53.858015,
    "lng": -0.439017,
    "postcode": "HU17 7JY",
    "la": "East Riding of Yorkshire",
    "prescriptions": 981,
    "cost": 1285.53
  },
  "B81085": {
    "name": "HAXBY GROUP HULL",
    "lat": 53.802041,
    "lng": -0.352901,
    "postcode": "HU7 3JQ",
    "la": "Kingston upon Hull, City of",
    "prescriptions": 6916,
    "cost": 6796.4
  },
  "B81087": {
    "name": "BIRKWOOD MEDICAL CENTRE",
    "lat": 53.55743,
    "lng": -0.105227,
    "postcode": "DN34 5DX",
    "la": "North East Lincolnshire",
    "prescriptions": 2490,
    "cost": 1877.62
  },
  "B81088": {
    "name": "HOWDEN MEDICAL PRACTICE",
    "lat": 53.744195,
    "lng": -0.869408,
    "postcode": "DN14 7DD",
    "la": "East Riding of Yorkshire",
    "prescriptions": 2334,
    "cost": 1865.4699999999998
  },
  "B81090": {
    "name": "THE OSWALD ROAD MEDICAL SURGERY",
    "lat": 53.588137,
    "lng": -0.6534,
    "postcode": "DN15 7PG",
    "la": "North Lincolnshire",
    "prescriptions": 1618,
    "cost": 1580.3
  },
  "B81091": {
    "name": "LITTLEFIELD SURGERY",
    "lat": 53.56446,
    "lng": -0.112583,
    "postcode": "DN34 4GB",
    "la": "North East Lincolnshire",
    "prescriptions": 616,
    "cost": 687.63
  },
  "B81092": {
    "name": "THE MEDICAL CENTRE, DRIFFIELD",
    "lat": 54.006277,
    "lng": -0.439687,
    "postcode": "YO25 6UH",
    "la": "East Riding of Yorkshire",
    "prescriptions": 3098,
    "cost": 2641.23
  },
  "B81097": {
    "name": "DELTA HEALTHCARE",
    "lat": 53.764302,
    "lng": -0.292842,
    "postcode": "HU9 3JA",
    "la": "Kingston upon Hull, City of",
    "prescriptions": 562,
    "cost": 578.85
  },
  "B81099": {
    "name": "THE KIRTON LINDSEY AND SCOTTER SURGERY",
    "lat": 53.474111,
    "lng": -0.594076,
    "postcode": "DN21 4PQ",
    "la": "North Lincolnshire",
    "prescriptions": 3069,
    "cost": 2515.61
  },
  "B81100": {
    "name": "DR AC MILNER",
    "lat": 53.748515,
    "lng": -0.43434,
    "postcode": "HU10 6QJ",
    "la": "East Riding of Yorkshire",
    "prescriptions": 1050,
    "cost": 806.6499999999999
  },
  "B81101": {
    "name": "GREENGATES MEDICAL GROUP",
    "lat": 53.844362,
    "lng": -0.418502,
    "postcode": "HU17 0HB",
    "la": "East Riding of Yorkshire",
    "prescriptions": 4895,
    "cost": 7230.07
  },
  "B81104": {
    "name": "CAMPUS HEALTH CENTRE",
    "lat": 53.768814,
    "lng": -0.368372,
    "postcode": "HU5 2EG",
    "la": "Kingston upon Hull, City of",
    "prescriptions": 585,
    "cost": 578.51
  },
  "B81108": {
    "name": "DR A SINHA",
    "lat": 53.567843,
    "lng": -0.108808,
    "postcode": "DN31 2BH",
    "la": "North East Lincolnshire",
    "prescriptions": 1002,
    "cost": 1014.05
  },
  "B81109": {
    "name": "RIVERSIDE SURGERY",
    "lat": 53.553605,
    "lng": -0.491827,
    "postcode": "DN20 8AS",
    "la": "North Lincolnshire",
    "prescriptions": 7166,
    "cost": 9059.490000000002
  },
  "B81112": {
    "name": "JAMES ALEXANDER FAMILY PRACTICE",
    "lat": 53.787428,
    "lng": -0.321368,
    "postcode": "HU7 4DW",
    "la": "Kingston upon Hull, City of",
    "prescriptions": 5014,
    "cost": 4682.6
  },
  "B81113": {
    "name": "CEDAR MEDICAL PRACTICE",
    "lat": 53.570935,
    "lng": -0.65529,
    "postcode": "DN16 2AB",
    "la": "North Lincolnshire",
    "prescriptions": 3087,
    "cost": 3243.4700000000003
  },
  "B81118": {
    "name": "WEST COMMON LANE TEACHING PRACTICE",
    "lat": 53.574752,
    "lng": -0.682445,
    "postcode": "DN17 1YH",
    "la": "North Lincolnshire",
    "prescriptions": 2366,
    "cost": 1988.03
  },
  "B81119": {
    "name": "GOODHEART SURGERY",
    "lat": 53.787428,
    "lng": -0.321368,
    "postcode": "HU7 4DW",
    "la": "Kingston upon Hull, City of",
    "prescriptions": 1312,
    "cost": 1613.29
  },
  "B81606": {
    "name": "STIRLING MEDICAL CENTRE (MATHEWS)",
    "lat": 53.573306,
    "lng": -0.058663,
    "postcode": "DN31 3AE",
    "la": "North East Lincolnshire",
    "prescriptions": 980,
    "cost": 1288.33
  },
  "B81616": {
    "name": "DR GT HENDOW'S PRACTICE",
    "lat": 53.787428,
    "lng": -0.321368,
    "postcode": "HU7 4DW",
    "la": "Kingston upon Hull, City of",
    "prescriptions": 775,
    "cost": 730.0400000000001
  },
  "B81617": {
    "name": "CHERRY TREE MEDICAL PRACTICE",
    "lat": 53.592443,
    "lng": -0.651828,
    "postcode": "DN15 6HX",
    "la": "North Lincolnshire",
    "prescriptions": 2679,
    "cost": 2973.61
  },
  "B81619": {
    "name": "PARK VIEW SURGERY",
    "lat": 53.729809,
    "lng": -0.435838,
    "postcode": "HU13 9AJ",
    "la": "East Riding of Yorkshire",
    "prescriptions": 712,
    "cost": 546.01
  },
  "B81628": {
    "name": "BARNETBY MEDICAL CENTRE",
    "lat": 53.574151,
    "lng": -0.403589,
    "postcode": "DN38 6HZ",
    "la": "North Lincolnshire",
    "prescriptions": 1184,
    "cost": 796.25
  },
  "B81631": {
    "name": "DRS RAUT AND THOUFEEQ",
    "lat": 53.805614,
    "lng": -0.326549,
    "postcode": "HU7 5DD",
    "la": "Kingston upon Hull, City of",
    "prescriptions": 1385,
    "cost": 1126.45
  },
  "B81635": {
    "name": "LAURBEL SURGERY",
    "lat": 53.778483,
    "lng": -0.257026,
    "postcode": "HU11 4AR",
    "la": "Kingston upon Hull, City of",
    "prescriptions": 1249,
    "cost": 1302.15
  },
  "B81642": {
    "name": "DR OZ QURESHI",
    "lat": 53.54859,
    "lng": -0.034737,
    "postcode": "DN35 0LN",
    "la": "North East Lincolnshire",
    "prescriptions": 1459,
    "cost": 1094.79
  },
  "B81645": {
    "name": "EAST PARK PRACTICE",
    "lat": 53.746241,
    "lng": -0.342102,
    "postcode": "HU1 3SA",
    "la": "Kingston upon Hull, City of",
    "prescriptions": 516,
    "cost": 355.08
  },
  "B81647": {
    "name": "WEST TOWN SURGERY",
    "lat": 53.685901,
    "lng": -0.443659,
    "postcode": "DN18 5PU",
    "la": "North Lincolnshire",
    "prescriptions": 951,
    "cost": 669.4599999999999
  },
  "B81648": {
    "name": "THE KILLINGHOLME SURGERY",
    "lat": 53.62993,
    "lng": -0.26034,
    "postcode": "DN40 3EL",
    "la": "North Lincolnshire",
    "prescriptions": 667,
    "cost": 448.05
  },
  "B81653": {
    "name": "KING STREET MEDICAL CENTRE",
    "lat": 53.784219,
    "lng": -0.41375,
    "postcode": "HU16 5QJ",
    "la": "East Riding of Yorkshire",
    "prescriptions": 2120,
    "cost": 2254.9500000000003
  },
  "B81655": {
    "name": "GREENLANDS SURGERY",
    "lat": 53.573306,
    "lng": -0.058663,
    "postcode": "DN31 3AE",
    "la": "North East Lincolnshire",
    "prescriptions": 507,
    "cost": 928.28
  },
  "B81656": {
    "name": "RAJ MEDICAL CENTRE",
    "lat": 53.550655,
    "lng": -0.113968,
    "postcode": "DN34 5LP",
    "la": "North East Lincolnshire",
    "prescriptions": 1473,
    "cost": 1362.2799999999997
  },
  "B81663": {
    "name": "CORE CARE FAMILY PRACTICE",
    "lat": 53.567843,
    "lng": -0.108808,
    "postcode": "DN31 2BH",
    "la": "North East Lincolnshire",
    "prescriptions": 729,
    "cost": 2768.16
  },
  "B81665": {
    "name": "HEALING PARTNERSHIP",
    "lat": 53.577732,
    "lng": -0.171869,
    "postcode": "DN41 7JB",
    "la": "North East Lincolnshire",
    "prescriptions": 515,
    "cost": 438.46000000000004
  },
  "B81666": {
    "name": "DR MITCHELL",
    "lat": 53.720769,
    "lng": -0.503586,
    "postcode": "HU14 3DB",
    "la": "East Riding of Yorkshire",
    "prescriptions": 453,
    "cost": 459.44000000000005
  },
  "B81697": {
    "name": "DR P SURESH BABU",
    "lat": 53.557292,
    "lng": -0.06619,
    "postcode": "DN32 9SW",
    "la": "North East Lincolnshire",
    "prescriptions": 661,
    "cost": 596.01
  },
  "B82002": {
    "name": "MILLFIELD SURGERY",
    "lat": 54.125422,
    "lng": -1.192506,
    "postcode": "YO61 3JR",
    "la": "North Yorkshire",
    "prescriptions": 2070,
    "cost": 1738.79
  },
  "B82004": {
    "name": "NIDDERDALE GROUP PRACTICE",
    "lat": 54.086629,
    "lng": -1.760943,
    "postcode": "HG3 5AT",
    "la": "North Yorkshire",
    "prescriptions": 2137,
    "cost": 1718.3200000000002
  },
  "B82005": {
    "name": "PRIORY MEDICAL GROUP",
    "lat": 53.949333,
    "lng": -1.129247,
    "postcode": "YO24 3WX",
    "la": "York",
    "prescriptions": 9012,
    "cost": 11826.26
  },
  "B82007": {
    "name": "TOWNHEAD SURGERY",
    "lat": 54.070547,
    "lng": -2.276906,
    "postcode": "BD24 9JA",
    "la": "North Yorkshire",
    "prescriptions": 2992,
    "cost": 2180.09
  },
  "B82008": {
    "name": "NORTH HOUSE SURGERY",
    "lat": 54.139059,
    "lng": -1.524007,
    "postcode": "HG4 1HL",
    "la": "North Yorkshire",
    "prescriptions": 2581,
    "cost": 2414.64
  },
  "B82010": {
    "name": "RIPON SPA SURGERY",
    "lat": 54.136178,
    "lng": -1.527086,
    "postcode": "HG4 2BE",
    "la": "North Yorkshire",
    "prescriptions": 1674,
    "cost": 1586.46
  },
  "B82011": {
    "name": "SHERBURN SURGERY",
    "lat": 54.181744,
    "lng": -0.531499,
    "postcode": "YO17 8PH",
    "la": "North Yorkshire",
    "prescriptions": 2042,
    "cost": 1357.6899999999998
  },
  "B82012": {
    "name": "THE LEEDS ROAD PRACTICE",
    "lat": 53.980481,
    "lng": -1.535162,
    "postcode": "HG2 8AY",
    "la": "North Yorkshire",
    "prescriptions": 3721,
    "cost": 2813.6099999999997
  },
  "B82013": {
    "name": "MOSS HEALTHCARE HARROGATE",
    "lat": 53.995554,
    "lng": -1.542163,
    "postcode": "HG1 5JP",
    "la": "North Yorkshire",
    "prescriptions": 3720,
    "cost": 5345.96
  },
  "B82014": {
    "name": "KINGSWOOD SURGERY",
    "lat": 53.99151,
    "lng": -1.517057,
    "postcode": "HG2 7SA",
    "la": "North Yorkshire",
    "prescriptions": 1090,
    "cost": 1508.51
  },
  "B82016": {
    "name": "STRAYSIDE HEALTH",
    "lat": 53.996369,
    "lng": -1.529799,
    "postcode": "HG1 5AR",
    "la": "North Yorkshire",
    "prescriptions": 1847,
    "cost": 2599.41
  },
  "B82017": {
    "name": "WHITBY GROUP PRACTICE",
    "lat": 54.485934,
    "lng": -0.623186,
    "postcode": "YO21 1SD",
    "la": "North Yorkshire",
    "prescriptions": 4616,
    "cost": 3610.42
  },
  "B82018": {
    "name": "ESCRICK SURGERY",
    "lat": 53.879893,
    "lng": -1.047722,
    "postcode": "YO19 6LE",
    "la": "North Yorkshire",
    "prescriptions": 1559,
    "cost": 1236.02
  },
  "B82019": {
    "name": "TOPCLIFFE SURGERY",
    "lat": 54.177803,
    "lng": -1.384712,
    "postcode": "YO7 3RP",
    "la": "North Yorkshire",
    "prescriptions": 1004,
    "cost": 751.63
  },
  "B82021": {
    "name": "DALTON TERRACE SURGERY",
    "lat": 53.952276,
    "lng": -1.096911,
    "postcode": "YO24 4DB",
    "la": "York",
    "prescriptions": 1231,
    "cost": 1485.2700000000002
  },
  "B82022": {
    "name": "GREAT AYTON SURGERY",
    "lat": 54.48977,
    "lng": -1.132691,
    "postcode": "TS9 6BL",
    "la": "North Yorkshire",
    "prescriptions": 1740,
    "cost": 1331.06
  },
  "B82023": {
    "name": "CATTERICK VILLAGE SURGERY",
    "lat": 54.37839,
    "lng": -1.632076,
    "postcode": "DL10 7LD",
    "la": "North Yorkshire",
    "prescriptions": 1995,
    "cost": 1567.4
  },
  "B82024": {
    "name": "EASTFIELD MEDICAL CENTRE",
    "lat": 54.238911,
    "lng": -0.397567,
    "postcode": "YO11 3LJ",
    "la": "North Yorkshire",
    "prescriptions": 2105,
    "cost": 1794.0100000000002
  },
  "B82025": {
    "name": "DERWENT PRACTICE",
    "lat": 54.1326,
    "lng": -0.797739,
    "postcode": "YO17 9RF",
    "la": "North Yorkshire",
    "prescriptions": 5068,
    "cost": 3844.84
  },
  "B82026": {
    "name": "HAXBY GROUP PRACTICE",
    "lat": 54.019338,
    "lng": -1.081921,
    "postcode": "YO32 2LL",
    "la": "York",
    "prescriptions": 6994,
    "cost": 5690.52
  },
  "B82027": {
    "name": "THE SPA SURGERY",
    "lat": 53.996369,
    "lng": -1.529799,
    "postcode": "HG1 5AR",
    "la": "North Yorkshire",
    "prescriptions": 2237,
    "cost": 3193.37
  },
  "B82029": {
    "name": "DOCTORS LANE SURGERY",
    "lat": 54.496529,
    "lng": -1.684655,
    "postcode": "DL11 7TH",
    "la": "North Yorkshire",
    "prescriptions": 993,
    "cost": 827.65
  },
  "B82030": {
    "name": "MASHAM & KIRKBY MALZEARD SURGERY",
    "lat": 54.221894,
    "lng": -1.656043,
    "postcode": "HG4 4DZ",
    "la": "North Yorkshire",
    "prescriptions": 1774,
    "cost": 1312.98
  },
  "B82031": {
    "name": "SHERBURN GROUP PRACTICE",
    "lat": 53.798612,
    "lng": -1.253523,
    "postcode": "LS25 6ED",
    "la": "North Yorkshire",
    "prescriptions": 2053,
    "cost": 1539.3899999999999
  },
  "B82032": {
    "name": "CHURCH LANE SURGERY",
    "lat": 54.093564,
    "lng": -1.393648,
    "postcode": "YO51 9BD",
    "la": "North Yorkshire",
    "prescriptions": 2937,
    "cost": 2777.13
  },
  "B82033": {
    "name": "PICKERING MEDICAL PRACTICE",
    "lat": 54.244956,
    "lng": -0.781447,
    "postcode": "YO18 8BL",
    "la": "North Yorkshire",
    "prescriptions": 3497,
    "cost": 2416.66
  },
  "B82034": {
    "name": "QUAKERS LANE SURGERY",
    "lat": 54.406363,
    "lng": -1.741713,
    "postcode": "DL10 4BB",
    "la": "North Yorkshire",
    "prescriptions": 2118,
    "cost": 1826.6
  },
  "B82035": {
    "name": "SCORTON MEDICAL CENTRE",
    "lat": 54.39818,
    "lng": -1.614771,
    "postcode": "DL10 6HB",
    "la": "North Yorkshire",
    "prescriptions": 987,
    "cost": 720.88
  },
  "B82036": {
    "name": "PARK STREET",
    "lat": 54.136385,
    "lng": -1.527191,
    "postcode": "HG4 2AX",
    "la": "North Yorkshire",
    "prescriptions": 2412,
    "cost": 1917.2400000000002
  },
  "B82037": {
    "name": "FILEY SURGERY",
    "lat": 54.210105,
    "lng": -0.29036,
    "postcode": "YO14 9AE",
    "la": "North Yorkshire",
    "prescriptions": 3198,
    "cost": 2481.7
  },
  "B82038": {
    "name": "HAXBY GROUP SCARBOROUGH",
    "lat": 54.277326,
    "lng": -0.409732,
    "postcode": "YO11 1UB",
    "la": "North Yorkshire",
    "prescriptions": 4722,
    "cost": 4633.5
  },
  "B82041": {
    "name": "BEECH TREE SURGERY",
    "lat": 53.774959,
    "lng": -1.080535,
    "postcode": "YO8 9AJ",
    "la": "North Yorkshire",
    "prescriptions": 4182,
    "cost": 3348.13
  },
  "B82042": {
    "name": "LAMBERT MEDICAL CENTRE",
    "lat": 54.231693,
    "lng": -1.342399,
    "postcode": "YO7 1LU",
    "la": "North Yorkshire",
    "prescriptions": 2454,
    "cost": 1857.54
  },
  "B82044": {
    "name": "STOKESLEY SURGERY",
    "lat": 54.470911,
    "lng": -1.194379,
    "postcode": "TS9 5DY",
    "la": "North Yorkshire",
    "prescriptions": 1606,
    "cost": 2013.02
  },